{
"type": "FeatureCollection",
"name": "ubsi",
"crs": { "type": "name", "properties": { "name": "urn:ogc:def:crs:EPSG::4674" } },
"features": [
{ "type": "Feature", "properties": { "cod_dsei": 23.0, "dsei": "PERNAMBUCO", "polo_base": "TUXI", "cod_polo": "NÃO CONTEM NO SIASI", "nome_da_es": "POLO TUXI", "uf_ibge": "PE", "cod_munici": 2601607.0, "municipio_": "BELÉM DO SÃO FRANCISCO", "tipo_de_es": "POLO BASE" }, "geometry": { "type": "Point", "coordinates": [ -38.7151, -8.7384 ] } },
{ "type": "Feature", "properties": { "cod_dsei": 12.0, "dsei": "VALE DO JAVARI", "polo_base": "RIO BRANCO", "cod_polo": "NÃO CONTEM NO SIASI", "nome_da_es": "TAWAIA", "uf_ibge": "AM", "cod_munici": 1300201.0, "municipio_": "ATALAIA DO NORTE", "tipo_de_es": "POLO BASE" }, "geometry": { "type": "Point", "coordinates": [ -71.0626, -5.9144 ] } },
{ "type": "Feature", "properties": { "cod_dsei": 6.0, "dsei": "ALTO RIO NEGRO", "polo_base": "SANTA ISABEL DO RIO NEGRO", "cod_polo": "PONTO DE APOIO", "nome_da_es": "SANTA ISABEL DO RIO NEGRO", "uf_ibge": "AM", "cod_munici": 1303601.0, "municipio_": "SANTA ISABEL DO RIO NEGRO", "tipo_de_es": "PONTO DE APOIO" }, "geometry": { "type": "Point", "coordinates": [ -65.016, -0.4177 ] } },
{ "type": "Feature", "properties": { "cod_dsei": 6.0, "dsei": "ALTO RIO NEGRO", "polo_base": "SANTA ISABEL DO RIO NEGRO", "cod_polo": "PONTO DE APOIO", "nome_da_es": "BARCELOS", "uf_ibge": "AM", "cod_munici": 1300409.0, "municipio_": "BARCELOS", "tipo_de_es": "PONTO DE APOIO" }, "geometry": { "type": "Point", "coordinates": [ -62.9259, -0.9697 ] } },
{ "type": "Feature", "properties": { "cod_dsei": 12.0, "dsei": "VALE DO JAVARI", "polo_base": "RIO BRANCO", "cod_polo": "NÃO CONTEM NO SIASI", "nome_da_es": "PARAÍSO", "uf_ibge": "AM", "cod_munici": 1300201.0, "municipio_": "ATALAIA DO NORTE", "tipo_de_es": "UNIDADE BÁSICA DE SAÚDE INDÍGENA - UBSI" }, "geometry": { "type": "Point", "coordinates": [ -70.9374, -5.8417 ] } },
{ "type": "Feature", "properties": { "cod_dsei": 12.0, "dsei": "VALE DO JAVARI", "polo_base": "RIO BRANCO", "cod_polo": "NÃO CONTEM NO SIASI", "nome_da_es": "TXËCHË WASSA", "uf_ibge": "AM", "cod_munici": 1300201.0, "municipio_": "ATALAIA DO NORTE", "tipo_de_es": "UNIDADE BÁSICA DE SAÚDE INDÍGENA - UBSI" }, "geometry": { "type": "Point", "coordinates": [ -71.0631, -5.8975 ] } },
{ "type": "Feature", "properties": { "cod_dsei": 15.0, "dsei": "LESTE DE RORAIMA", "polo_base": "WILIMON", "cod_polo": "1653", "nome_da_es": "SÍTIO SÃO MATEUS", "uf_ibge": "RR", "cod_munici": 1400704.0, "municipio_": "UIRAMUTÃ", "tipo_de_es": "UNIDADE BÁSICA DE SAÚDE INDÍGENA - UBSI" }, "geometry": { "type": "Point", "coordinates": [ -60.207, 4.6566 ] } },
{ "type": "Feature", "properties": { "cod_dsei": 20.0, "dsei": "MATO GROSSO DO SUL", "polo_base": "PARANHOS", "cod_polo": "1684", "nome_da_es": "UBSI CERRO", "uf_ibge": "MS", "cod_munici": 5003157.0000000009, "municipio_": "CORONEL SAPUCAIA", "tipo_de_es": "UNIDADE BÁSICA DE SAÚDE INDÍGENA - UBSI" }, "geometry": { "type": "Point", "coordinates": [ -55.4332, -23.237 ] } },
{ "type": "Feature", "properties": { "cod_dsei": 20.0, "dsei": "MATO GROSSO DO SUL", "polo_base": "SEM INFORMAÇÃO", "cod_polo": "NÃO CONTEM NO SIASI", "nome_da_es": "UBSI BALSAMO", "uf_ibge": "MS", "cod_munici": 5004908.0, "municipio_": "JARAGUARI", "tipo_de_es": "UNIDADE BÁSICA DE SAÚDE INDÍGENA - UBSI" }, "geometry": { "type": "Point", "coordinates": [ -54.7003, -20.0578 ] } },
{ "type": "Feature", "properties": { "cod_dsei": 28.0, "dsei": "MÉDIO RIO SOLIMÕES E AFLUENTES", "polo_base": "ENVIRA", "cod_polo": "1780", "nome_da_es": "CAPAI Envira", "uf_ibge": "AM", "cod_munici": 1301506.0, "municipio_": "ENVIRA", "tipo_de_es": "PONTO DE APOIO" }, "geometry": { "type": "Point", "coordinates": [ -70.0238, -7.4361 ] } },
{ "type": "Feature", "properties": { "cod_dsei": 28.0, "dsei": "MÉDIO RIO SOLIMÕES E AFLUENTES", "polo_base": "MUCURA", "cod_polo": "1641", "nome_da_es": "CAPAI Fonte Boa", "uf_ibge": "AM", "cod_munici": 1301605.0, "municipio_": "FONTE BOA", "tipo_de_es": "PONTO DE APOIO" }, "geometry": { "type": "Point", "coordinates": [ -66.092, -2.52 ] } },
{ "type": "Feature", "properties": { "cod_dsei": 28.0, "dsei": "MÉDIO RIO SOLIMÕES E AFLUENTES", "polo_base": "MORADA NOVA", "cod_polo": "1715", "nome_da_es": "CAPAI Itamarati", "uf_ibge": "AM", "cod_munici": 1301951.0, "municipio_": "ITAMARATI", "tipo_de_es": "PONTO DE APOIO" }, "geometry": { "type": "Point", "coordinates": [ -68.2537, -6.4254 ] } },
{ "type": "Feature", "properties": { "cod_dsei": 28.0, "dsei": "MÉDIO RIO SOLIMÕES E AFLUENTES", "polo_base": "KUMARÚ", "cod_polo": "1716", "nome_da_es": "UAPI Boca do Paupixuna", "uf_ibge": "AM", "cod_munici": 1302207.0, "municipio_": "JURUÁ", "tipo_de_es": "PONTO DE APOIO" }, "geometry": { "type": "Point", "coordinates": [ -65.7723, -2.7378 ] } },
{ "type": "Feature", "properties": { "cod_dsei": 28.0, "dsei": "MÉDIO RIO SOLIMÕES E AFLUENTES", "polo_base": "BUGAIO", "cod_polo": "1711", "nome_da_es": "UAPI Santa Fé", "uf_ibge": "AM", "cod_munici": 1302306.0, "municipio_": "JUTAÍ", "tipo_de_es": "PONTO DE APOIO" }, "geometry": { "type": "Point", "coordinates": [ -67.0553, -2.9086 ] } },
{ "type": "Feature", "properties": { "cod_dsei": 28.0, "dsei": "MÉDIO RIO SOLIMÕES E AFLUENTES", "polo_base": "BUÁ-BUÁ", "cod_polo": "1710", "nome_da_es": "CAPAI Jutaí", "uf_ibge": "AM", "cod_munici": 1302306.0, "municipio_": "JUTAÍ", "tipo_de_es": "PONTO DE APOIO" }, "geometry": { "type": "Point", "coordinates": [ -66.7595, -2.7576 ] } },
{ "type": "Feature", "properties": { "cod_dsei": 28.0, "dsei": "MÉDIO RIO SOLIMÕES E AFLUENTES", "polo_base": "CUIÚ-CUIÚ", "cod_polo": "1709", "nome_da_es": "UAPI São Pedro", "uf_ibge": "AM", "cod_munici": 1302801.0, "municipio_": "MARAÃ", "tipo_de_es": "PONTO DE APOIO" }, "geometry": { "type": "Point", "coordinates": [ -65.1301, -2.3458 ] } },
{ "type": "Feature", "properties": { "cod_dsei": 28.0, "dsei": "MÉDIO RIO SOLIMÕES E AFLUENTES", "polo_base": "SEM INFORMAÇÃO", "cod_polo": "NÃO CONTEM NO SIASI", "nome_da_es": "Depósito SESANI", "uf_ibge": "AM", "cod_munici": 1304203.0, "municipio_": "TEFÉ", "tipo_de_es": "PONTO DE APOIO" }, "geometry": { "type": "Point", "coordinates": [ -64.7092, -3.3479 ] } },
{ "type": "Feature", "properties": { "cod_dsei": 28.0, "dsei": "MÉDIO RIO SOLIMÕES E AFLUENTES", "polo_base": "UARINI", "cod_polo": "1642", "nome_da_es": "UAPI Porto Praia", "uf_ibge": "AM", "cod_munici": 1304259.9999999998, "municipio_": "UARINI", "tipo_de_es": "PONTO DE APOIO" }, "geometry": { "type": "Point", "coordinates": [ -65.1552, -2.8973 ] } },
{ "type": "Feature", "properties": { "cod_dsei": 28.0, "dsei": "MÉDIO RIO SOLIMÕES E AFLUENTES", "polo_base": "SEM INFORMAÇÃO", "cod_polo": "NÃO CONTEM NO SIASI", "nome_da_es": "CAPAI Uarini", "uf_ibge": "AM", "cod_munici": 1304259.9999999998, "municipio_": "UARINI", "tipo_de_es": "PONTO DE APOIO" }, "geometry": { "type": "Point", "coordinates": [ -65.1595, -2.9807 ] } },
{ "type": "Feature", "properties": { "cod_dsei": 27.0, "dsei": "RIO TAPAJÓS", "polo_base": "NOVO PROGRESSO", "cod_polo": "1628", "nome_da_es": "KRIMEJ", "uf_ibge": "PA", "cod_munici": 1500602.0, "municipio_": "ALTAMIRA", "tipo_de_es": "UNIDADE BÁSICA DE SAÚDE INDÍGENA - UBSI" }, "geometry": { "type": "Point", "coordinates": [ -54.5191, -8.6892 ] } },
{ "type": "Feature", "properties": { "cod_dsei": 27.0, "dsei": "RIO TAPAJÓS", "polo_base": "JACAREACANGA", "cod_polo": "NÃO CONTEM NO SIASI", "nome_da_es": "CASTANHEIRA DO MUIUÇUZÃO", "uf_ibge": "PA", "cod_munici": 1503754.0, "municipio_": "JACAREACANGA", "tipo_de_es": "UNIDADE BÁSICA DE SAÚDE INDÍGENA - UBSI" }, "geometry": { "type": "Point", "coordinates": [ -57.988, -6.3163 ] } },
{ "type": "Feature", "properties": { "cod_dsei": 31.0, "dsei": "XAVANTE", "polo_base": "PARANATINGA", "cod_polo": "1804", "nome_da_es": "ARIMATÉIA", "uf_ibge": "MT", "cod_munici": 5106307.0, "municipio_": "PARANATINGA", "tipo_de_es": "UNIDADE BÁSICA DE SAÚDE INDÍGENA - UBSI" }, "geometry": { "type": "Point", "coordinates": [ -54.0497, -14.0938 ] } },
{ "type": "Feature", "properties": { "cod_dsei": 33.0, "dsei": "YANOMAMI", "polo_base": "MARAUIÁ", "cod_polo": "1579", "nome_da_es": "PUKIMA BEIRA", "uf_ibge": "AM", "cod_munici": 1303601.0, "municipio_": "santa isabel do rio negro", "tipo_de_es": "UNIDADE BÁSICA DE SAÚDE INDÍGENA - UBSI" }, "geometry": { "type": "Point", "coordinates": [ -65.2203, -0.0369 ] } },
{ "type": "Feature", "properties": { "cod_dsei": 33.0, "dsei": "YANOMAMI", "polo_base": "APIAÚ", "cod_polo": "1557", "nome_da_es": "SERRINHA", "uf_ibge": "AM", "cod_munici": 1303601.0, "municipio_": "santa isabel do rio negro", "tipo_de_es": "UNIDADE BÁSICA DE SAÚDE INDÍGENA - UBSI" }, "geometry": { "type": "Point", "coordinates": [ -65.2162, -0.0368 ] } },
{ "type": "Feature", "properties": { "cod_dsei": 23.0, "dsei": "PERNAMBUCO", "polo_base": "TRUKÁ", "cod_polo": "1724", "nome_da_es": "POLO TRUKÁ TAPERA", "uf_ibge": "PE", "cod_munici": 2609808.0, "municipio_": "OROCÓ", "tipo_de_es": "POLO BASE" }, "geometry": { "type": "Point", "coordinates": [ -39.5826, -8.6071 ] } },
{ "type": "Feature", "properties": { "cod_dsei": 27.0, "dsei": "RIO TAPAJÓS", "polo_base": "KARAPANATUBA", "cod_polo": "1548", "nome_da_es": "NOVA KARAPANATUBA", "uf_ibge": "PA", "cod_munici": 1503754.0, "municipio_": "JACAREACANGA", "tipo_de_es": "POLO BASE" }, "geometry": { "type": "Point", "coordinates": [ -57.6819, -6.2028 ] } },
{ "type": "Feature", "properties": { "cod_dsei": 21.0, "dsei": "MÉDIO RIO PURUS", "polo_base": "ABAQUADI", "cod_polo": "1698", "nome_da_es": "COLÔNIA", "uf_ibge": "AM", "cod_munici": 1300904.0, "municipio_": "CANUTAMA", "tipo_de_es": "POLO BASE" }, "geometry": { "type": "Point", "coordinates": [ -64.6492, -5.9097 ] } },
{ "type": "Feature", "properties": { "cod_dsei": 25.0, "dsei": "POTIGUARA", "polo_base": "MARCAÇÃO", "cod_polo": "1752", "nome_da_es": "CAIERA", "uf_ibge": "PB", "cod_munici": 2509057.0, "municipio_": "MARCAÇÃO", "tipo_de_es": "POLO BASE" }, "geometry": { "type": "Point", "coordinates": [ -34.9474, -6.7188 ] } },
{ "type": "Feature", "properties": { "cod_dsei": 25.0, "dsei": "POTIGUARA", "polo_base": "RIO TINTO", "cod_polo": "1753", "nome_da_es": "RIO TINTO", "uf_ibge": "PB", "cod_munici": 2512903.0, "municipio_": "RIO TINTO", "tipo_de_es": "POLO BASE" }, "geometry": { "type": "Point", "coordinates": [ -34.9551, -6.6702 ] } },
{ "type": "Feature", "properties": { "cod_dsei": 23.0, "dsei": "PERNAMBUCO", "polo_base": "ATIKUM", "cod_polo": "1723", "nome_da_es": "QUIXABA", "uf_ibge": "PE", "cod_munici": 2603926.0, "municipio_": "CARNAUBEIRA DA PENHA", "tipo_de_es": "OCA (COMUNIDADE)" }, "geometry": { "type": "Point", "coordinates": [ -37.2896, -8.2945 ] } },
{ "type": "Feature", "properties": { "cod_dsei": 6.0, "dsei": "ALTO RIO NEGRO", "polo_base": "VILA NOVA", "cod_polo": "1812", "nome_da_es": "VILA NOVA", "uf_ibge": "AM", "cod_munici": 1303809.0, "municipio_": "SÃO GABRIEL DA CACHOEIRA", "tipo_de_es": "POLO BASE" }, "geometry": { "type": "Point", "coordinates": [ -67.2401, 1.3401 ] } },
{ "type": "Feature", "properties": { "cod_dsei": 6.0, "dsei": "ALTO RIO NEGRO", "polo_base": "SÃO JOAQUIM", "cod_polo": "1810", "nome_da_es": "SÃO JOAQUIM", "uf_ibge": "AM", "cod_munici": 1303809.0, "municipio_": "SÃO GABRIEL DA CACHOEIRA", "tipo_de_es": "POLO BASE" }, "geometry": { "type": "Point", "coordinates": [ -69.3852, 1.7025 ] } },
{ "type": "Feature", "properties": { "cod_dsei": 6.0, "dsei": "ALTO RIO NEGRO", "polo_base": "TUCUMÃ", "cod_polo": "1575", "nome_da_es": "TUCUMÃ", "uf_ibge": "AM", "cod_munici": 1303809.0, "municipio_": "SÃO GABRIEL DA CACHOEIRA", "tipo_de_es": "POLO BASE" }, "geometry": { "type": "Point", "coordinates": [ -68.6452, 1.4897 ] } },
{ "type": "Feature", "properties": { "cod_dsei": 6.0, "dsei": "ALTO RIO NEGRO", "polo_base": "CAMARÃO", "cod_polo": "1520", "nome_da_es": "CAMARÃO", "uf_ibge": "AM", "cod_munici": 1303809.0, "municipio_": "SÃO GABRIEL DA CACHOEIRA", "tipo_de_es": "POLO BASE" }, "geometry": { "type": "Point", "coordinates": [ -67.4491, 0.6229 ] } },
{ "type": "Feature", "properties": { "cod_dsei": 6.0, "dsei": "ALTO RIO NEGRO", "polo_base": "SERRINHA", "cod_polo": "1533", "nome_da_es": "SERRINHA", "uf_ibge": "AM", "cod_munici": 1303601.0, "municipio_": "SANTA ISABEL DO RIO NEGRO", "tipo_de_es": "POLO BASE" }, "geometry": { "type": "Point", "coordinates": [ -64.828, -0.4821 ] } },
{ "type": "Feature", "properties": { "cod_dsei": 6.0, "dsei": "ALTO RIO NEGRO", "polo_base": "TAPERA", "cod_polo": "1537", "nome_da_es": "TAPERA", "uf_ibge": "AM", "cod_munici": 1300409.0, "municipio_": "BARCELOS", "tipo_de_es": "POLO BASE" }, "geometry": { "type": "Point", "coordinates": [ -64.0783, -0.1909 ] } },
{ "type": "Feature", "properties": { "cod_dsei": 6.0, "dsei": "ALTO RIO NEGRO", "polo_base": "TARACUÁ", "cod_polo": "1813", "nome_da_es": "TARACUÁ", "uf_ibge": "AM", "cod_munici": 1303809.0, "municipio_": "SÃO GABRIEL DA CACHOEIRA", "tipo_de_es": "POLO BASE" }, "geometry": { "type": "Point", "coordinates": [ -68.542, 0.1295 ] } },
{ "type": "Feature", "properties": { "cod_dsei": 6.0, "dsei": "ALTO RIO NEGRO", "polo_base": "BALAIO", "cod_polo": "1531", "nome_da_es": "BALAIO", "uf_ibge": "AM", "cod_munici": 1303809.0, "municipio_": "SÃO GABRIEL DA CACHOEIRA", "tipo_de_es": "POLO BASE" }, "geometry": { "type": "Point", "coordinates": [ -66.6496, 0.3885 ] } },
{ "type": "Feature", "properties": { "cod_dsei": 6.0, "dsei": "ALTO RIO NEGRO", "polo_base": "CUMARÚ", "cod_polo": "1536", "nome_da_es": "CUMARÚ", "uf_ibge": "AM", "cod_munici": 1300409.0, "municipio_": "BARCELOS", "tipo_de_es": "POLO BASE" }, "geometry": { "type": "Point", "coordinates": [ -63.3845, -0.6024 ] } },
{ "type": "Feature", "properties": { "cod_dsei": 12.0, "dsei": "VALE DO JAVARI", "polo_base": "MÉDIO ITUÍ", "cod_polo": "1792", "nome_da_es": "BOA VISTA", "uf_ibge": "AM", "cod_munici": 1300201.0, "municipio_": "ATALAIA DO NORTE", "tipo_de_es": "POLO BASE" }, "geometry": { "type": "Point", "coordinates": [ -71.6665, -6.3357 ] } },
{ "type": "Feature", "properties": { "cod_dsei": 7.0, "dsei": "ALTO RIO SOLIMÕES", "polo_base": "CAMPO ALEGRE", "cod_polo": "1676", "nome_da_es": "CAMPO ALEGRE", "uf_ibge": "AM", "cod_munici": 1303907.9999999998, "municipio_": "SÃO PAULO DE OLIVENÇA", "tipo_de_es": "POLO BASE" }, "geometry": { "type": "Point", "coordinates": [ -69.3837, -3.5898 ] } },
{ "type": "Feature", "properties": { "cod_dsei": 27.0, "dsei": "RIO TAPAJÓS", "polo_base": "SANTA MARIA", "cod_polo": "1650", "nome_da_es": "SANTA MARIA", "uf_ibge": "PA", "cod_munici": 1503754.0, "municipio_": "JACAREACANGA", "tipo_de_es": "POLO BASE" }, "geometry": { "type": "Point", "coordinates": [ -57.3607, -7.7152 ] } },
{ "type": "Feature", "properties": { "cod_dsei": 11.0, "dsei": "MINAS GERAIS E ESPÍRITO SANTO", "polo_base": "PRADINHO", "cod_polo": "1505", "nome_da_es": "VILA NOVA", "uf_ibge": "MG", "cod_munici": 3106606.0, "municipio_": "BERTÓPOLIS", "tipo_de_es": "POLO BASE" }, "geometry": { "type": "Point", "coordinates": [ -40.5438, -16.8852 ] } },
{ "type": "Feature", "properties": { "cod_dsei": 11.0, "dsei": "MINAS GERAIS E ESPÍRITO SANTO", "polo_base": "CARMÉSIA", "cod_polo": "1685", "nome_da_es": "SEDE", "uf_ibge": "MG", "cod_munici": 3113799.9999999995, "municipio_": "CARMÉSIA", "tipo_de_es": "POLO BASE" }, "geometry": { "type": "Point", "coordinates": [ -43.1185, -19.0434 ] } },
{ "type": "Feature", "properties": { "cod_dsei": 28.0, "dsei": "MÉDIO RIO SOLIMÕES E AFLUENTES", "polo_base": "BIÁ", "cod_polo": "1778", "nome_da_es": "GATO", "uf_ibge": "AM", "cod_munici": 1302306.0, "municipio_": "JUTAÍ", "tipo_de_es": "POLO BASE" }, "geometry": { "type": "Point", "coordinates": [ -67.4746, -4.2068 ] } },
{ "type": "Feature", "properties": { "cod_dsei": 28.0, "dsei": "MÉDIO RIO SOLIMÕES E AFLUENTES", "polo_base": "BUGAIO", "cod_polo": "1711", "nome_da_es": "SANTA FÉ", "uf_ibge": "AM", "cod_munici": 1302306.0, "municipio_": "JUTAÍ", "tipo_de_es": "POLO BASE" }, "geometry": { "type": "Point", "coordinates": [ -67.0553, -2.9086 ] } },
{ "type": "Feature", "properties": { "cod_dsei": 28.0, "dsei": "MÉDIO RIO SOLIMÕES E AFLUENTES", "polo_base": "CUIÚ-CUIÚ", "cod_polo": "1709", "nome_da_es": "SÃO PEDRO", "uf_ibge": "AM", "cod_munici": 1302801.0, "municipio_": "MARAÃ", "tipo_de_es": "POLO BASE" }, "geometry": { "type": "Point", "coordinates": [ -65.1302, -2.3454 ] } },
{ "type": "Feature", "properties": { "cod_dsei": 28.0, "dsei": "MÉDIO RIO SOLIMÕES E AFLUENTES", "polo_base": "UARINI", "cod_polo": "1642", "nome_da_es": "PORTO PRAIA", "uf_ibge": "AM", "cod_munici": 1304259.9999999998, "municipio_": "UARINI", "tipo_de_es": "POLO BASE" }, "geometry": { "type": "Point", "coordinates": [ -65.155, -2.897 ] } },
{ "type": "Feature", "properties": { "cod_dsei": 28.0, "dsei": "MÉDIO RIO SOLIMÕES E AFLUENTES", "polo_base": "CARAUARÍ", "cod_polo": "1779", "nome_da_es": "TAQUARA", "uf_ibge": "AM", "cod_munici": 1301001.0, "municipio_": "CARAUARI", "tipo_de_es": "POLO BASE" }, "geometry": { "type": "Point", "coordinates": [ -66.929, -4.9335 ] } },
{ "type": "Feature", "properties": { "cod_dsei": 26.0, "dsei": "CUIABÁ", "polo_base": "PAKUERA", "cod_polo": "1900", "nome_da_es": "ATURUA", "uf_ibge": "MT", "cod_munici": 5106307.0, "municipio_": "PARANATINGA", "tipo_de_es": "POLO BASE" }, "geometry": { "type": "Point", "coordinates": [ -54.684, -14.3162 ] } },
{ "type": "Feature", "properties": { "cod_dsei": 17.0, "dsei": "MANAUS", "polo_base": "LARANJAL", "cod_polo": "1853", "nome_da_es": "LARANJAL", "uf_ibge": "AM", "cod_munici": 1300805.0, "municipio_": "BORBA", "tipo_de_es": "POLO BASE" }, "geometry": { "type": "Point", "coordinates": [ -58.9539, -4.0003 ] } },
{ "type": "Feature", "properties": { "cod_dsei": 17.0, "dsei": "MANAUS", "polo_base": "KWATÁ", "cod_polo": "1851", "nome_da_es": "KWATÁ", "uf_ibge": "AM", "cod_munici": 1300805.0, "municipio_": "BORBA", "tipo_de_es": "POLO BASE" }, "geometry": { "type": "Point", "coordinates": [ -59.2742, -4.2289 ] } },
{ "type": "Feature", "properties": { "cod_dsei": 17.0, "dsei": "MANAUS", "polo_base": "IGAPÓ AÇÚ", "cod_polo": "1852", "nome_da_es": "PIRANHA", "uf_ibge": "AM", "cod_munici": 1300805.0, "municipio_": "BORBA", "tipo_de_es": "POLO BASE" }, "geometry": { "type": "Point", "coordinates": [ -60.2375, -4.5175 ] } },
{ "type": "Feature", "properties": { "cod_dsei": 12.0, "dsei": "VALE DO JAVARI", "polo_base": "SEM INFORMAÇÃO", "cod_polo": "SEM INFORMAÇÃO", "nome_da_es": "1º PEF - PALMEIRAS DO JAVARI", "uf_ibge": "AM", "cod_munici": 1300201.0, "municipio_": "ATALAIA DO NORTE", "tipo_de_es": "PELOTÃO ESPECIAL DE FRONTEIRA" }, "geometry": { "type": "Point", "coordinates": [ -72.8121, -5.1377 ] } },
{ "type": "Feature", "properties": { "cod_dsei": 15.0, "dsei": "LESTE DE RORAIMA", "polo_base": "MALACACHETA", "cod_polo": "1669", "nome_da_es": "CAMPINHO", "uf_ibge": "RR", "cod_munici": 1400175.0, "municipio_": "CANTÁ", "tipo_de_es": "POLO BASE" }, "geometry": { "type": "Point", "coordinates": [ -60.5527, 2.8128 ] } },
{ "type": "Feature", "properties": { "cod_dsei": 21.0, "dsei": "MÉDIO RIO PURUS", "polo_base": "SÃO PEDRO", "cod_polo": "1703", "nome_da_es": "SÃO PEDRO", "uf_ibge": "AM", "cod_munici": 1302405.0, "municipio_": "LÁBREA", "tipo_de_es": "POLO BASE" }, "geometry": { "type": "Point", "coordinates": [ -65.7371, -7.9171 ] } },
{ "type": "Feature", "properties": { "cod_dsei": 21.0, "dsei": "MÉDIO RIO PURUS", "polo_base": "SÃO FRANCISCO", "cod_polo": "1564", "nome_da_es": "SÃO FRANCISCO", "uf_ibge": "AM", "cod_munici": 1302405.0, "municipio_": "LÁBREA", "tipo_de_es": "POLO BASE" }, "geometry": { "type": "Point", "coordinates": [ -65.3608, -7.261 ] } },
{ "type": "Feature", "properties": { "cod_dsei": 29.0, "dsei": "TOCANTINS", "polo_base": "SANTA FE DO ARAGUAIA", "cod_polo": "1541", "nome_da_es": "WARILATÃ", "uf_ibge": "TO", "cod_munici": 1718865.0, "municipio_": "SANTA FÉ DO ARAGUAIA", "tipo_de_es": "POLO BASE" }, "geometry": { "type": "Point", "coordinates": [ -49.1786, -7.1259 ] } },
{ "type": "Feature", "properties": { "cod_dsei": 8.0, "dsei": "ARAGUAIA", "polo_base": "SANTA TEREZINHA", "cod_polo": "1539", "nome_da_es": "SANTA TEREZINHA", "uf_ibge": "MT", "cod_munici": 5107776.0, "municipio_": "SANTA TEREZINHA", "tipo_de_es": "POLO BASE" }, "geometry": { "type": "Point", "coordinates": [ -50.5085, -10.4755 ] } },
{ "type": "Feature", "properties": { "cod_dsei": 8.0, "dsei": "ARAGUAIA", "polo_base": "SÃO FÉLIX DO ARAGUAIA", "cod_polo": "1542", "nome_da_es": "SÃO FÉLIX DO ARAGUAIA", "uf_ibge": "MT", "cod_munici": 5107859.0, "municipio_": "SÃO FÉLIX DO ARAGUAIA", "tipo_de_es": "POLO BASE" }, "geometry": { "type": "Point", "coordinates": [ -50.6621, -11.6161 ] } },
{ "type": "Feature", "properties": { "cod_dsei": 8.0, "dsei": "ARAGUAIA", "polo_base": "CONFRESA", "cod_polo": "1858", "nome_da_es": "CONFRESA", "uf_ibge": "MT", "cod_munici": 5103353.0, "municipio_": "CONFRESA", "tipo_de_es": "POLO BASE" }, "geometry": { "type": "Point", "coordinates": [ -51.5752, -10.646 ] } },
{ "type": "Feature", "properties": { "cod_dsei": 31.0, "dsei": "XAVANTE", "polo_base": "ÁGUA BOA", "cod_polo": "1674", "nome_da_es": "ÁGUA BOA", "uf_ibge": "MT", "cod_munici": 5100201.0, "municipio_": "ÁGUA BOA", "tipo_de_es": "POLO BASE" }, "geometry": { "type": "Point", "coordinates": [ -52.1573, -14.0549 ] } },
{ "type": "Feature", "properties": { "cod_dsei": 8.0, "dsei": "ARAGUAIA", "polo_base": "GOIÂNIA", "cod_polo": "1857", "nome_da_es": "GOIÂNIA", "uf_ibge": "GO", "cod_munici": 5208707.0, "municipio_": "GOIÂNIA", "tipo_de_es": "POLO BASE" }, "geometry": { "type": "Point", "coordinates": [ -49.2412, -16.7331 ] } },
{ "type": "Feature", "properties": { "cod_dsei": 8.0, "dsei": "ARAGUAIA", "polo_base": "SÃO FÉLIX DO ARAGUAIA", "cod_polo": "1542", "nome_da_es": "SEDE ARAGUAIA", "uf_ibge": "MT", "cod_munici": 5107859.0, "municipio_": "SÃO FÉLIX DO ARAGUAIA", "tipo_de_es": "SEDE" }, "geometry": { "type": "Point", "coordinates": [ -50.663, -11.6163 ] } },
{ "type": "Feature", "properties": { "cod_dsei": 24.0, "dsei": "PORTO VELHO", "polo_base": "ALTA FLORESTA", "cod_polo": "1734", "nome_da_es": "ALTA FLORESTA D'OESTE", "uf_ibge": "RO", "cod_munici": 1100015.0, "municipio_": "ALTA FLORESTA D'OESTE", "tipo_de_es": "POLO BASE / CASAI" }, "geometry": { "type": "Point", "coordinates": [ -62.0021, -11.941 ] } },
{ "type": "Feature", "properties": { "cod_dsei": 24.0, "dsei": "PORTO VELHO", "polo_base": "PORTO VELHO", "cod_polo": "1692", "nome_da_es": "PORTO VELHO", "uf_ibge": "RO", "cod_munici": 1100205.0, "municipio_": "PORTO VELHO", "tipo_de_es": "POLO BASE / CASAI" }, "geometry": { "type": "Point", "coordinates": [ -63.8545, -8.7509 ] } },
{ "type": "Feature", "properties": { "cod_dsei": 24.0, "dsei": "PORTO VELHO", "polo_base": "JARÚ", "cod_polo": "2117", "nome_da_es": "JARU", "uf_ibge": "RO", "cod_munici": 1100114.0, "municipio_": "JARU", "tipo_de_es": "POLO BASE / CASAI" }, "geometry": { "type": "Point", "coordinates": [ -62.6768, -10.4307 ] } },
{ "type": "Feature", "properties": { "cod_dsei": 24.0, "dsei": "PORTO VELHO", "polo_base": "JI-PARANÁ", "cod_polo": "1733", "nome_da_es": "JI-PARANÁ", "uf_ibge": "RO", "cod_munici": 1100122.0, "municipio_": "JI-PARANÁ", "tipo_de_es": "POLO BASE / CASAI" }, "geometry": { "type": "Point", "coordinates": [ -61.9136, -10.8878 ] } },
{ "type": "Feature", "properties": { "cod_dsei": 24.0, "dsei": "PORTO VELHO", "polo_base": "GUAJARÁ MIRIM", "cod_polo": "1526", "nome_da_es": "GUAJARÁ-MIRIM", "uf_ibge": "RO", "cod_munici": 1100106.0, "municipio_": "GUAJARÁ-MIRIM", "tipo_de_es": "POLO BASE / CASAI" }, "geometry": { "type": "Point", "coordinates": [ -65.3198, -10.778 ] } },
{ "type": "Feature", "properties": { "cod_dsei": 24.0, "dsei": "PORTO VELHO", "polo_base": "HUMAITÁ", "cod_polo": "1720", "nome_da_es": "HUMAITÁ", "uf_ibge": "AM", "cod_munici": 1301704.0, "municipio_": "HUMAITÁ", "tipo_de_es": "POLO BASE / CASAI" }, "geometry": { "type": "Point", "coordinates": [ -63.0335, -7.5047 ] } },
{ "type": "Feature", "properties": { "cod_dsei": 18.0, "dsei": "GUAMÁ-TOCANTINS", "polo_base": "MARABÁ", "cod_polo": "1738", "nome_da_es": "MARABÁ", "uf_ibge": "PA", "cod_munici": 1504208.0, "municipio_": "MARABÁ", "tipo_de_es": "POLO BASE" }, "geometry": { "type": "Point", "coordinates": [ -49.1068, -5.3471 ] } },
{ "type": "Feature", "properties": { "cod_dsei": 18.0, "dsei": "GUAMÁ-TOCANTINS", "polo_base": "ORIXIMINA", "cod_polo": "1824", "nome_da_es": "ORIXIMINÁ", "uf_ibge": "PA", "cod_munici": 1505304.0, "municipio_": "ORIXIMINÁ", "tipo_de_es": "POLO BASE" }, "geometry": { "type": "Point", "coordinates": [ -48.4781, -1.456 ] } },
{ "type": "Feature", "properties": { "cod_dsei": 18.0, "dsei": "GUAMÁ-TOCANTINS", "polo_base": "PARAGOMINAS", "cod_polo": "1528", "nome_da_es": "PARAGOMINAS", "uf_ibge": "PA", "cod_munici": 1505502.0, "municipio_": "PARAGOMINAS", "tipo_de_es": "POLO BASE" }, "geometry": { "type": "Point", "coordinates": [ -47.3548, -2.9795 ] } },
{ "type": "Feature", "properties": { "cod_dsei": 18.0, "dsei": "GUAMÁ-TOCANTINS", "polo_base": "SANTA LUZIA DO PARÁ", "cod_polo": "1637", "nome_da_es": "SANTA LUZIA DO PARÁ", "uf_ibge": "PA", "cod_munici": 1506559.0, "municipio_": "SANTA LUZIA DO PARÁ", "tipo_de_es": "POLO BASE" }, "geometry": { "type": "Point", "coordinates": [ -46.9758, -1.8 ] } },
{ "type": "Feature", "properties": { "cod_dsei": 18.0, "dsei": "GUAMÁ-TOCANTINS", "polo_base": "SANTARÉM", "cod_polo": "1522", "nome_da_es": "SANTARÉM", "uf_ibge": "PA", "cod_munici": 1506807.0, "municipio_": "SANTARÉM", "tipo_de_es": "POLO BASE" }, "geometry": { "type": "Point", "coordinates": [ -54.7093, -2.4341 ] } },
{ "type": "Feature", "properties": { "cod_dsei": 18.0, "dsei": "GUAMÁ-TOCANTINS", "polo_base": "TOMÉ-AÇU", "cod_polo": "1529", "nome_da_es": "TOMÉ AÇÚ", "uf_ibge": "PA", "cod_munici": 1508001.0, "municipio_": "TOMÉ-AÇU", "tipo_de_es": "POLO BASE" }, "geometry": { "type": "Point", "coordinates": [ -48.2501, -2.4236 ] } },
{ "type": "Feature", "properties": { "cod_dsei": 18.0, "dsei": "GUAMÁ-TOCANTINS", "polo_base": "CAPITÃO POÇO", "cod_polo": "1750", "nome_da_es": "CAPITÃO POÇO", "uf_ibge": "PA", "cod_munici": 1506559.0, "municipio_": "SANTA LUZIA DO PARÁ", "tipo_de_es": "POLO BASE" }, "geometry": { "type": "Point", "coordinates": [ -47.0589, -1.746 ] } },
{ "type": "Feature", "properties": { "cod_dsei": 23.0, "dsei": "PERNAMBUCO", "polo_base": "ATIKUM", "cod_polo": "1723", "nome_da_es": "UMÃS", "uf_ibge": "PE", "cod_munici": 2603926.0, "municipio_": "CARNAUBEIRA DA PENHA", "tipo_de_es": "ASSOCIAÇÃO (COMUNIDADE)" }, "geometry": { "type": "Point", "coordinates": [ -37.322, -8.2866 ] } },
{ "type": "Feature", "properties": { "cod_dsei": 23.0, "dsei": "PERNAMBUCO", "polo_base": "ATIKUM", "cod_polo": "1723", "nome_da_es": "CALDEIRÃO II", "uf_ibge": "PE", "cod_munici": 2603926.0, "municipio_": "CARNAUBEIRA DA PENHA", "tipo_de_es": "OCA (COMUNIDADE)" }, "geometry": { "type": "Point", "coordinates": [ -37.2881, -8.2574 ] } },
{ "type": "Feature", "properties": { "cod_dsei": 23.0, "dsei": "PERNAMBUCO", "polo_base": "ATIKUM", "cod_polo": "1723", "nome_da_es": "LOGRADOR", "uf_ibge": "PE", "cod_munici": 2603926.0, "municipio_": "CARNAUBEIRA DA PENHA", "tipo_de_es": "OCA (COMUNIDADE)" }, "geometry": { "type": "Point", "coordinates": [ -37.2666, -8.3117 ] } },
{ "type": "Feature", "properties": { "cod_dsei": 23.0, "dsei": "PERNAMBUCO", "polo_base": "ATIKUM", "cod_polo": "1723", "nome_da_es": "CACHOEIRA I", "uf_ibge": "PE", "cod_munici": 2603926.0, "municipio_": "CARNAUBEIRA DA PENHA", "tipo_de_es": "CASA DE CULTURA (COMUNIDADE)" }, "geometry": { "type": "Point", "coordinates": [ -37.2199, -8.3353 ] } },
{ "type": "Feature", "properties": { "cod_dsei": 23.0, "dsei": "PERNAMBUCO", "polo_base": "ATIKUM", "cod_polo": "1723", "nome_da_es": "POLO ATIKUM", "uf_ibge": "PE", "cod_munici": 2603926.0, "municipio_": "CARNAUBEIRA DA PENHA", "tipo_de_es": "POLO BASE" }, "geometry": { "type": "Point", "coordinates": [ -38.7429, -8.3189 ] } },
{ "type": "Feature", "properties": { "cod_dsei": 23.0, "dsei": "PERNAMBUCO", "polo_base": "ATIKUM", "cod_polo": "1723", "nome_da_es": "POLO SALGUEIRO", "uf_ibge": "PE", "cod_munici": 2612208.0, "municipio_": "SALGUEIRO", "tipo_de_es": "POLO BASE" }, "geometry": { "type": "Point", "coordinates": [ -39.1206, -8.0713 ] } },
{ "type": "Feature", "properties": { "cod_dsei": 23.0, "dsei": "PERNAMBUCO", "polo_base": "FULNI-Ô", "cod_polo": "1681", "nome_da_es": "POLO FULNI-Ô", "uf_ibge": "PE", "cod_munici": 2600500.0, "municipio_": "ÁGUAS BELAS", "tipo_de_es": "POLO BASE" }, "geometry": { "type": "Point", "coordinates": [ -37.1228, -9.1178 ] } },
{ "type": "Feature", "properties": { "cod_dsei": 23.0, "dsei": "PERNAMBUCO", "polo_base": "KAMBIWÁ", "cod_polo": "1597", "nome_da_es": "POLO KAMBIWA", "uf_ibge": "PE", "cod_munici": 2606606.0, "municipio_": "IBIMIRIM", "tipo_de_es": "POLO BASE" }, "geometry": { "type": "Point", "coordinates": [ -37.6908, -8.5376 ] } },
{ "type": "Feature", "properties": { "cod_dsei": 23.0, "dsei": "PERNAMBUCO", "polo_base": "KAMBIWÁ-TUXÁ", "cod_polo": "1877", "nome_da_es": "POLO KAMBIWA TUXÁ", "uf_ibge": "PE", "cod_munici": 2607000.0000000005, "municipio_": "INAJÁ", "tipo_de_es": "POLO BASE" }, "geometry": { "type": "Point", "coordinates": [ -37.828, -8.906 ] } },
{ "type": "Feature", "properties": { "cod_dsei": 23.0, "dsei": "PERNAMBUCO", "polo_base": "KAPINAWÁ", "cod_polo": "1596", "nome_da_es": "POLO KAPINAWA", "uf_ibge": "PE", "cod_munici": 2602803.0, "municipio_": "BUÍQUE", "tipo_de_es": "POLO BASE" }, "geometry": { "type": "Point", "coordinates": [ -37.1553, -8.6198 ] } },
{ "type": "Feature", "properties": { "cod_dsei": 23.0, "dsei": "PERNAMBUCO", "polo_base": "PANKARÁ", "cod_polo": "1737", "nome_da_es": "POLO PANKARÁ", "uf_ibge": "PE", "cod_munici": 2603926.0, "municipio_": "CARNAUBEIRA DA PENHA", "tipo_de_es": "POLO BASE" }, "geometry": { "type": "Point", "coordinates": [ -38.7455, -8.3165 ] } },
{ "type": "Feature", "properties": { "cod_dsei": 23.0, "dsei": "PERNAMBUCO", "polo_base": "PANKARARU", "cod_polo": "1599", "nome_da_es": "POLO PANKARARU", "uf_ibge": "PE", "cod_munici": 2608057.0, "municipio_": "JATOBÁ", "tipo_de_es": "POLO BASE" }, "geometry": { "type": "Point", "coordinates": [ -38.2428, -9.1744 ] } },
{ "type": "Feature", "properties": { "cod_dsei": 23.0, "dsei": "PERNAMBUCO", "polo_base": "PANKARURU ENTRE SERRAS", "cod_polo": "1783", "nome_da_es": "POLO PANKARARU ENTRE SERRAS", "uf_ibge": "PE", "cod_munici": 2614808.0000000005, "municipio_": "TACARATU", "tipo_de_es": "POLO BASE" }, "geometry": { "type": "Point", "coordinates": [ -38.1483, -9.1033 ] } },
{ "type": "Feature", "properties": { "cod_dsei": 23.0, "dsei": "PERNAMBUCO", "polo_base": "PIPIPAN", "cod_polo": "1727", "nome_da_es": "POLO PIPIPÃ", "uf_ibge": "PE", "cod_munici": 2605707.0, "municipio_": "FLORESTA", "tipo_de_es": "POLO BASE" }, "geometry": { "type": "Point", "coordinates": [ -38.5785, -8.6036 ] } },
{ "type": "Feature", "properties": { "cod_dsei": 23.0, "dsei": "PERNAMBUCO", "polo_base": "TRUKÁ", "cod_polo": "1724", "nome_da_es": "POLO TRUKÁ", "uf_ibge": "PE", "cod_munici": 2603009.0, "municipio_": "CABROBÓ", "tipo_de_es": "POLO BASE" }, "geometry": { "type": "Point", "coordinates": [ -39.3063, -8.5138 ] } },
{ "type": "Feature", "properties": { "cod_dsei": 12.0, "dsei": "VALE DO JAVARI", "polo_base": "SEM INFORMAÇÃO", "cod_polo": "SEM INFORMAÇÃO", "nome_da_es": "4º PEF - ESTIRÃO DO EQUADOR", "uf_ibge": "AM", "cod_munici": 1300201.0, "municipio_": "ATALAIA DO NORTE", "tipo_de_es": "PELOTÃO ESPECIAL DE FRONTEIRA" }, "geometry": { "type": "Point", "coordinates": [ -71.597, -4.5238 ] } },
{ "type": "Feature", "properties": { "cod_dsei": 12.0, "dsei": "VALE DO JAVARI", "polo_base": "SEM INFORMAÇÃO", "cod_polo": "SEM INFORMAÇÃO", "nome_da_es": "BAPE - BASE DE PROTEÇÃO ETNOAMBIENTAL - ITUÍ/ITACOAI", "uf_ibge": "AM", "cod_munici": 1300607.0, "municipio_": "BENJAMIN CONSTANT", "tipo_de_es": "BASE" }, "geometry": { "type": "Point", "coordinates": [ -70.2583, -4.6511 ] } },
{ "type": "Feature", "properties": { "cod_dsei": 23.0, "dsei": "PERNAMBUCO", "polo_base": "XUKURU DO ORORUBÁ", "cod_polo": "1598", "nome_da_es": "POLO XUKURU DO ORORUBÁ", "uf_ibge": "PE", "cod_munici": 2610905.0, "municipio_": "PESQUEIRA", "tipo_de_es": "POLO BASE" }, "geometry": { "type": "Point", "coordinates": [ -36.7158, -8.3338 ] } },
{ "type": "Feature", "properties": { "cod_dsei": 23.0, "dsei": "PERNAMBUCO", "polo_base": "XUKURU DE CIMBRES", "cod_polo": "1782", "nome_da_es": "POLO XUKURU DE CIMBRES", "uf_ibge": "PE", "cod_munici": 2610905.0, "municipio_": "PESQUEIRA", "tipo_de_es": "POLO BASE" }, "geometry": { "type": "Point", "coordinates": [ -36.6814, -8.3581 ] } },
{ "type": "Feature", "properties": { "cod_dsei": 1.0, "dsei": "ALAGOAS E SERGIPE", "polo_base": "XUCURU-KARIRI", "cod_polo": "1592", "nome_da_es": "POLO XUCURU KARIRI", "uf_ibge": "AL", "cod_munici": 2706307.0, "municipio_": "PALMEIRA DOS ÍNDIOS", "tipo_de_es": "POLO BASE" }, "geometry": { "type": "Point", "coordinates": [ -36.6449, -9.4103 ] } },
{ "type": "Feature", "properties": { "cod_dsei": 3.0, "dsei": "ALTAMIRA", "polo_base": "ALTAMIRA", "cod_polo": "1680", "nome_da_es": "DSEI ALTAMIRA", "uf_ibge": "PA", "cod_munici": 1500602.0, "municipio_": "ALTAMIRA", "tipo_de_es": "SEDE POLO" }, "geometry": { "type": "Point", "coordinates": [ -52.2206, -2.7931 ] } },
{ "type": "Feature", "properties": { "cod_dsei": 4.0, "dsei": "ALTO RIO JURUÁ", "polo_base": "MANCIO LIMA", "cod_polo": "1513", "nome_da_es": "MÂNCIO LIMA", "uf_ibge": "AC", "cod_munici": 1200336.0, "municipio_": "MÂNCIO LIMA", "tipo_de_es": "POLO BASE" }, "geometry": { "type": "Point", "coordinates": [ -71.0924, -6.3931 ] } },
{ "type": "Feature", "properties": { "cod_dsei": 4.0, "dsei": "ALTO RIO JURUÁ", "polo_base": "FEIJÓ", "cod_polo": "1570", "nome_da_es": "FEIJÓ", "uf_ibge": "AC", "cod_munici": 1200302.0, "municipio_": "FEIJÓ", "tipo_de_es": "POLO BASE" }, "geometry": { "type": "Point", "coordinates": [ -69.6481, -7.8325 ] } },
{ "type": "Feature", "properties": { "cod_dsei": 4.0, "dsei": "ALTO RIO JURUÁ", "polo_base": "CRUZEIRO DO SUL", "cod_polo": "1569", "nome_da_es": "CRUZEIRO DO SUL", "uf_ibge": "AC", "cod_munici": 1200203.0, "municipio_": "CRUZEIRO DO SUL", "tipo_de_es": "POLO BASE" }, "geometry": { "type": "Point", "coordinates": [ -72.2013, -7.7732 ] } },
{ "type": "Feature", "properties": { "cod_dsei": 4.0, "dsei": "ALTO RIO JURUÁ", "polo_base": "MARECHAL THAUMATURGO", "cod_polo": "1515", "nome_da_es": "MARECHAL THAUMATURGO", "uf_ibge": "AC", "cod_munici": 1200351.0, "municipio_": "MARECHAL THAUMATURGO", "tipo_de_es": "POLO BASE" }, "geometry": { "type": "Point", "coordinates": [ -71.2098, -7.0514 ] } },
{ "type": "Feature", "properties": { "cod_dsei": 4.0, "dsei": "ALTO RIO JURUÁ", "polo_base": "PORTO WALTER", "cod_polo": "1514", "nome_da_es": "PORTO WALTER", "uf_ibge": "AC", "cod_munici": 1200393.0, "municipio_": "PORTO WALTER", "tipo_de_es": "POLO BASE" }, "geometry": { "type": "Point", "coordinates": [ -71.2561, -7.7356 ] } },
{ "type": "Feature", "properties": { "cod_dsei": 4.0, "dsei": "ALTO RIO JURUÁ", "polo_base": "TARAUACÁ", "cod_polo": "1572", "nome_da_es": "TARAUACÁ", "uf_ibge": "AC", "cod_munici": 1200609.0, "municipio_": "TARAUACÁ", "tipo_de_es": "POLO BASE" }, "geometry": { "type": "Point", "coordinates": [ -69.2332, -7.8397 ] } },
{ "type": "Feature", "properties": { "cod_dsei": 4.0, "dsei": "ALTO RIO JURUÁ", "polo_base": "JORDAO", "cod_polo": "1516", "nome_da_es": "JORDAO", "uf_ibge": "AC", "cod_munici": 1200328.0, "municipio_": "JORDÃO", "tipo_de_es": "POLO BASE" }, "geometry": { "type": "Point", "coordinates": [ -70.0521, -8.8092 ] } },
{ "type": "Feature", "properties": { "cod_dsei": 6.0, "dsei": "ALTO RIO NEGRO", "polo_base": "JURUTI", "cod_polo": "1818", "nome_da_es": "JURUTI", "uf_ibge": "AM", "cod_munici": 1303809.0, "municipio_": "SÃO GABRIEL DA CACHOEIRA", "tipo_de_es": "POLO BASE" }, "geometry": { "type": "Point", "coordinates": [ -67.2488, 0.6263 ] } },
{ "type": "Feature", "properties": { "cod_dsei": 6.0, "dsei": "ALTO RIO NEGRO", "polo_base": "ILHA DAS FLORES", "cod_polo": "1532", "nome_da_es": "ILHA DAS FLORES", "uf_ibge": "AM", "cod_munici": 1303809.0, "municipio_": "SÃO GABRIEL DA CACHOEIRA", "tipo_de_es": "POLO BASE" }, "geometry": { "type": "Point", "coordinates": [ -67.2708, 0.0289 ] } },
{ "type": "Feature", "properties": { "cod_dsei": 6.0, "dsei": "ALTO RIO NEGRO", "polo_base": "SÃO GABRIEL DO PAPURI", "cod_polo": "1816", "nome_da_es": "SÃO GABRIEL DO PAPURI", "uf_ibge": "AM", "cod_munici": 1303809.0, "municipio_": "SÃO GABRIEL DA CACHOEIRA", "tipo_de_es": "POLO BASE" }, "geometry": { "type": "Point", "coordinates": [ -69.5863, 0.6429 ] } },
{ "type": "Feature", "properties": { "cod_dsei": 6.0, "dsei": "ALTO RIO NEGRO", "polo_base": "SÃO JOSÉ II", "cod_polo": "1814", "nome_da_es": "SÃO JOSÉ II", "uf_ibge": "AM", "cod_munici": 1303809.0, "municipio_": "SÃO GABRIEL DA CACHOEIRA", "tipo_de_es": "POLO BASE" }, "geometry": { "type": "Point", "coordinates": [ -69.6075, 0.221 ] } },
{ "type": "Feature", "properties": { "cod_dsei": 6.0, "dsei": "ALTO RIO NEGRO", "polo_base": "TUNUÍ-CACHOEIRA", "cod_polo": "1721", "nome_da_es": "TUNUÍ-CACHOEIRA", "uf_ibge": "AM", "cod_munici": 1303809.0, "municipio_": "SÃO GABRIEL DA CACHOEIRA", "tipo_de_es": "POLO BASE" }, "geometry": { "type": "Point", "coordinates": [ -68.0698, 1.3861 ] } },
{ "type": "Feature", "properties": { "cod_dsei": 6.0, "dsei": "ALTO RIO NEGRO", "polo_base": "MASSARABÍ", "cod_polo": "1534", "nome_da_es": "MASSARABÍ", "uf_ibge": "AM", "cod_munici": 1303601.0, "municipio_": "SANTA ISABEL DO RIO NEGRO", "tipo_de_es": "POLO BASE" }, "geometry": { "type": "Point", "coordinates": [ -65.916, -0.3174 ] } },
{ "type": "Feature", "properties": { "cod_dsei": 6.0, "dsei": "ALTO RIO NEGRO", "polo_base": "MARABITANA DO WAUPES", "cod_polo": "1563", "nome_da_es": "MARABITANA DO WAUPES", "uf_ibge": "AM", "cod_munici": 1303809.0, "municipio_": "SÃO GABRIEL DA CACHOEIRA", "tipo_de_es": "POLO BASE" }, "geometry": { "type": "Point", "coordinates": [ -68.8344, 0.4335 ] } },
{ "type": "Feature", "properties": { "cod_dsei": 6.0, "dsei": "ALTO RIO NEGRO", "polo_base": "NAZARÉ DO ENUIXÍ", "cod_polo": "1535", "nome_da_es": "NAZARÉ DO ENUIXÍ", "uf_ibge": "AM", "cod_munici": 1303601.0, "municipio_": "SANTA ISABEL DO RIO NEGRO", "tipo_de_es": "POLO BASE" }, "geometry": { "type": "Point", "coordinates": [ -65.0792, 0.5247 ] } },
{ "type": "Feature", "properties": { "cod_dsei": 6.0, "dsei": "ALTO RIO NEGRO", "polo_base": "PARI-CACHOEIRA", "cod_polo": "1815", "nome_da_es": "PARI-CACHOEIRA", "uf_ibge": "AM", "cod_munici": 1303809.0, "municipio_": "SÃO GABRIEL DA CACHOEIRA", "tipo_de_es": "POLO BASE" }, "geometry": { "type": "Point", "coordinates": [ -69.7893, 0.2528 ] } },
{ "type": "Feature", "properties": { "cod_dsei": 6.0, "dsei": "ALTO RIO NEGRO", "polo_base": "CANADÁ", "cod_polo": "1811", "nome_da_es": "CANADÁ", "uf_ibge": "AM", "cod_munici": 1303809.0, "municipio_": "SÃO GABRIEL DA CACHOEIRA", "tipo_de_es": "POLO BASE" }, "geometry": { "type": "Point", "coordinates": [ -69.0152, 1.2087 ] } },
{ "type": "Feature", "properties": { "cod_dsei": 6.0, "dsei": "ALTO RIO NEGRO", "polo_base": "CAUBURIS", "cod_polo": "1538", "nome_da_es": "CAUBURIS", "uf_ibge": "AM", "cod_munici": 1300409.0, "municipio_": "BARCELOS", "tipo_de_es": "POLO BASE" }, "geometry": { "type": "Point", "coordinates": [ -62.5103, -1.1746 ] } },
{ "type": "Feature", "properties": { "cod_dsei": 6.0, "dsei": "ALTO RIO NEGRO", "polo_base": "CUCUÍ", "cod_polo": "1817", "nome_da_es": "CUCUÍ", "uf_ibge": "AM", "cod_munici": 1303809.0, "municipio_": "SÃO GABRIEL DA CACHOEIRA", "tipo_de_es": "POLO BASE" }, "geometry": { "type": "Point", "coordinates": [ -66.8388, 1.1886 ] } },
{ "type": "Feature", "properties": { "cod_dsei": 6.0, "dsei": "ALTO RIO NEGRO", "polo_base": "YAUARETÊ", "cod_polo": "1631", "nome_da_es": "YAUARETÊ", "uf_ibge": "AM", "cod_munici": 1303809.0, "municipio_": "SÃO GABRIEL DA CACHOEIRA", "tipo_de_es": "POLO BASE" }, "geometry": { "type": "Point", "coordinates": [ -69.1928, 0.6074 ] } },
{ "type": "Feature", "properties": { "cod_dsei": 6.0, "dsei": "ALTO RIO NEGRO", "polo_base": "CARURU - TIQUIÉ", "cod_polo": "1559", "nome_da_es": "CARURU TIQUIÉ", "uf_ibge": "AM", "cod_munici": 1303809.0, "municipio_": "SÃO GABRIEL DA CACHOEIRA", "tipo_de_es": "POLO BASE" }, "geometry": { "type": "Point", "coordinates": [ -69.9283, 0.2748 ] } },
{ "type": "Feature", "properties": { "cod_dsei": 6.0, "dsei": "ALTO RIO NEGRO", "polo_base": "CARURU - UAUPÉS", "cod_polo": "1560", "nome_da_es": "CARURU UAUPÉS", "uf_ibge": "AM", "cod_munici": 1303809.0, "municipio_": "SÃO GABRIEL DA CACHOEIRA", "tipo_de_es": "POLO BASE" }, "geometry": { "type": "Point", "coordinates": [ -69.9148, 0.2742 ] } },
{ "type": "Feature", "properties": { "cod_dsei": 33.0, "dsei": "YANOMAMI", "polo_base": "ARATHA-U", "cod_polo": "1551", "nome_da_es": "ARATHA-U", "uf_ibge": "RR", "cod_munici": 1400050.0, "municipio_": "ALTO ALEGRE", "tipo_de_es": "POLO BASE" }, "geometry": { "type": "Point", "coordinates": [ -63.8503, 3.0937 ] } },
{ "type": "Feature", "properties": { "cod_dsei": 33.0, "dsei": "YANOMAMI", "polo_base": "ARACÁ", "cod_polo": "1708", "nome_da_es": "ARACÁ", "uf_ibge": "AM", "cod_munici": 1300409.0, "municipio_": "BARCELOS", "tipo_de_es": "POLO BASE" }, "geometry": { "type": "Point", "coordinates": [ -63.5117, 1.3133 ] } },
{ "type": "Feature", "properties": { "cod_dsei": 33.0, "dsei": "YANOMAMI", "polo_base": "BAIXO CATRIMANI", "cod_polo": "1765", "nome_da_es": "BAIXO CATRIMANI", "uf_ibge": "RR", "cod_munici": 1400209.0, "municipio_": "CARACARAÍ", "tipo_de_es": "POLO BASE" }, "geometry": { "type": "Point", "coordinates": [ -62.1744, 1.0719 ] } },
{ "type": "Feature", "properties": { "cod_dsei": 33.0, "dsei": "YANOMAMI", "polo_base": "AUARIS", "cod_polo": "1768", "nome_da_es": "AUARIS", "uf_ibge": "RR", "cod_munici": 1400027.0, "municipio_": "AMAJARI", "tipo_de_es": "POLO BASE" }, "geometry": { "type": "Point", "coordinates": [ -64.5186, 4.0164 ] } },
{ "type": "Feature", "properties": { "cod_dsei": 33.0, "dsei": "YANOMAMI", "polo_base": "ALTO PADAUIRI", "cod_polo": "1577", "nome_da_es": "ALTO PADAUIRI", "uf_ibge": "AM", "cod_munici": 1300409.0, "municipio_": "BARCELOS", "tipo_de_es": "POLO BASE" }, "geometry": { "type": "Point", "coordinates": [ -64.2145, 1.3252 ] } },
{ "type": "Feature", "properties": { "cod_dsei": 33.0, "dsei": "YANOMAMI", "polo_base": "ALTO CATRIMANI", "cod_polo": "1764", "nome_da_es": "ALTO CATRIMANI", "uf_ibge": "RR", "cod_munici": 1400307.9999999998, "municipio_": "MUCAJAÍ", "tipo_de_es": "POLO BASE" }, "geometry": { "type": "Point", "coordinates": [ -62.9821, 2.379 ] } },
{ "type": "Feature", "properties": { "cod_dsei": 33.0, "dsei": "YANOMAMI", "polo_base": "ALTO MUCAJAI", "cod_polo": "1635", "nome_da_es": "ALTO MUCAJAÍ", "uf_ibge": "RR", "cod_munici": 1400050.0, "municipio_": "ALTO ALEGRE", "tipo_de_es": "POLO BASE" }, "geometry": { "type": "Point", "coordinates": [ -62.2244, 2.775 ] } },
{ "type": "Feature", "properties": { "cod_dsei": 33.0, "dsei": "YANOMAMI", "polo_base": "AJURICABA", "cod_polo": "1543", "nome_da_es": "AJURICABA", "uf_ibge": "AM", "cod_munici": 1300409.0, "municipio_": "BARCELOS", "tipo_de_es": "POLO BASE" }, "geometry": { "type": "Point", "coordinates": [ -62.621, 0.8851 ] } },
{ "type": "Feature", "properties": { "cod_dsei": 33.0, "dsei": "YANOMAMI", "polo_base": "AJARANI", "cod_polo": "1763", "nome_da_es": "AJARANI", "uf_ibge": "RR", "cod_munici": 1400209.0, "municipio_": "CARACARAÍ", "tipo_de_es": "POLO BASE" }, "geometry": { "type": "Point", "coordinates": [ -61.4705, 2.0088 ] } },
{ "type": "Feature", "properties": { "cod_dsei": 33.0, "dsei": "YANOMAMI", "polo_base": "APIAÚ", "cod_polo": "1557", "nome_da_es": "APIAÚ", "uf_ibge": "RR", "cod_munici": 1400307.9999999998, "municipio_": "MUCAJAÍ", "tipo_de_es": "POLO BASE" }, "geometry": { "type": "Point", "coordinates": [ -61.81, 2.4917 ] } },
{ "type": "Feature", "properties": { "cod_dsei": 33.0, "dsei": "YANOMAMI", "polo_base": "BAIXO MUCAJAI", "cod_polo": "1643", "nome_da_es": "BAIXO MUCAJAI", "uf_ibge": "RR", "cod_munici": 1400050.0, "municipio_": "ALTO ALEGRE", "tipo_de_es": "POLO BASE" }, "geometry": { "type": "Point", "coordinates": [ -62.0169, 2.7349 ] } },
{ "type": "Feature", "properties": { "cod_dsei": 33.0, "dsei": "YANOMAMI", "polo_base": "MATURACÁ", "cod_polo": "1552", "nome_da_es": "MATURACÁ", "uf_ibge": "AM", "cod_munici": 1303809.0, "municipio_": "SÃO GABRIEL DA CACHOEIRA", "tipo_de_es": "POLO BASE" }, "geometry": { "type": "Point", "coordinates": [ -66.1503, 0.6287 ] } },
{ "type": "Feature", "properties": { "cod_dsei": 33.0, "dsei": "YANOMAMI", "polo_base": "ERICÓ", "cod_polo": "1530", "nome_da_es": "ERICÓ", "uf_ibge": "RR", "cod_munici": 1400027.0, "municipio_": "AMAJARI", "tipo_de_es": "POLO BASE" }, "geometry": { "type": "Point", "coordinates": [ -62.3798, 3.7633 ] } },
{ "type": "Feature", "properties": { "cod_dsei": 33.0, "dsei": "YANOMAMI", "polo_base": "MÉDIO PADAUIRI", "cod_polo": "1578", "nome_da_es": "MÉDIO PADAUIRI", "uf_ibge": "AM", "cod_munici": 1300409.0, "municipio_": "BARCELOS", "tipo_de_es": "POLO BASE" }, "geometry": { "type": "Point", "coordinates": [ -64.4461, 0.8497 ] } },
{ "type": "Feature", "properties": { "cod_dsei": 33.0, "dsei": "YANOMAMI", "polo_base": "HAXIU", "cod_polo": "1581", "nome_da_es": "HAXIU", "uf_ibge": "RR", "cod_munici": 1400050.0, "municipio_": "ALTO ALEGRE", "tipo_de_es": "POLO BASE" }, "geometry": { "type": "Point", "coordinates": [ -63.7464, 2.6734 ] } },
{ "type": "Feature", "properties": { "cod_dsei": 33.0, "dsei": "YANOMAMI", "polo_base": "INAMBÚ", "cod_polo": "1553", "nome_da_es": "INAMBÚ", "uf_ibge": "AM", "cod_munici": 1303809.0, "municipio_": "SÃO GABRIEL DA CACHOEIRA", "tipo_de_es": "POLO BASE" }, "geometry": { "type": "Point", "coordinates": [ -66.3411, 0.1048 ] } },
{ "type": "Feature", "properties": { "cod_dsei": 33.0, "dsei": "YANOMAMI", "polo_base": "PARAFURI", "cod_polo": "1772", "nome_da_es": "PARAFURI", "uf_ibge": "RR", "cod_munici": 1400050.0, "municipio_": "ALTO ALEGRE", "tipo_de_es": "POLO BASE" }, "geometry": { "type": "Point", "coordinates": [ -63.8494, 3.2831 ] } },
{ "type": "Feature", "properties": { "cod_dsei": 33.0, "dsei": "YANOMAMI", "polo_base": "MISSÃO CATRIMANI", "cod_polo": "1766", "nome_da_es": "MISSÃO CATRIMANI", "uf_ibge": "RR", "cod_munici": 1400209.0, "municipio_": "CARACARAÍ", "tipo_de_es": "POLO BASE" }, "geometry": { "type": "Point", "coordinates": [ -62.2839, 1.7419 ] } },
{ "type": "Feature", "properties": { "cod_dsei": 33.0, "dsei": "YANOMAMI", "polo_base": "MAIA", "cod_polo": "1554", "nome_da_es": "MAIA", "uf_ibge": "AM", "cod_munici": 1303601.0, "municipio_": "SANTA ISABEL DO RIO NEGRO", "tipo_de_es": "POLO BASE" }, "geometry": { "type": "Point", "coordinates": [ -65.8256, 0.4999 ] } },
{ "type": "Feature", "properties": { "cod_dsei": 33.0, "dsei": "YANOMAMI", "polo_base": "DEMINI", "cod_polo": "1585", "nome_da_es": "DEMINI", "uf_ibge": "AM", "cod_munici": 1300409.0, "municipio_": "BARCELOS", "tipo_de_es": "POLO BASE" }, "geometry": { "type": "Point", "coordinates": [ -62.811, 1.5131 ] } },
{ "type": "Feature", "properties": { "cod_dsei": 33.0, "dsei": "YANOMAMI", "polo_base": "WAPUTHA", "cod_polo": "1869", "nome_da_es": "WAPUTHA", "uf_ibge": "RR", "cod_munici": 1400050.0, "municipio_": "ALTO ALEGRE", "tipo_de_es": "POLO BASE" }, "geometry": { "type": "Point", "coordinates": [ -63.7153, 2.9875 ] } },
{ "type": "Feature", "properties": { "cod_dsei": 33.0, "dsei": "YANOMAMI", "polo_base": "XITEI", "cod_polo": "1771", "nome_da_es": "XITEI", "uf_ibge": "RR", "cod_munici": 1400050.0, "municipio_": "ALTO ALEGRE", "tipo_de_es": "POLO BASE" }, "geometry": { "type": "Point", "coordinates": [ -63.8714, 2.6069 ] } },
{ "type": "Feature", "properties": { "cod_dsei": 33.0, "dsei": "YANOMAMI", "polo_base": "MALOCA PAAPIU", "cod_polo": "1555", "nome_da_es": "MALOCA PAAPIÚ", "uf_ibge": "RR", "cod_munici": 1400282.0, "municipio_": "IRACEMA", "tipo_de_es": "POLO BASE" }, "geometry": { "type": "Point", "coordinates": [ -63.1606, 2.6669 ] } },
{ "type": "Feature", "properties": { "cod_dsei": 33.0, "dsei": "YANOMAMI", "polo_base": "PALIMIÚ", "cod_polo": "1770", "nome_da_es": "PALIMIÚ", "uf_ibge": "RR", "cod_munici": 1400050.0, "municipio_": "ALTO ALEGRE", "tipo_de_es": "POLO BASE" }, "geometry": { "type": "Point", "coordinates": [ -62.9708, 3.3322 ] } },
{ "type": "Feature", "properties": { "cod_dsei": 33.0, "dsei": "YANOMAMI", "polo_base": "HAKOMA", "cod_polo": "1788", "nome_da_es": "HAKOMA", "uf_ibge": "RR", "cod_munici": 1400050.0, "municipio_": "ALTO ALEGRE", "tipo_de_es": "POLO BASE" }, "geometry": { "type": "Point", "coordinates": [ -63.4716, 2.705 ] } },
{ "type": "Feature", "properties": { "cod_dsei": 33.0, "dsei": "YANOMAMI", "polo_base": "KAYANAÚ", "cod_polo": "1767", "nome_da_es": "KAYANAÚ", "uf_ibge": "RR", "cod_munici": 1400282.0, "municipio_": "IRACEMA", "tipo_de_es": "POLO BASE" }, "geometry": { "type": "Point", "coordinates": [ -62.9066, 2.7579 ] } },
{ "type": "Feature", "properties": { "cod_dsei": 33.0, "dsei": "YANOMAMI", "polo_base": "MARARI", "cod_polo": "1706", "nome_da_es": "MARARI", "uf_ibge": "AM", "cod_munici": 1300409.0, "municipio_": "BARCELOS", "tipo_de_es": "POLO BASE" }, "geometry": { "type": "Point", "coordinates": [ -64.8078, 1.1939 ] } },
{ "type": "Feature", "properties": { "cod_dsei": 33.0, "dsei": "YANOMAMI", "polo_base": "SURUCUCU", "cod_polo": "1600", "nome_da_es": "SURUCUCU", "uf_ibge": "RR", "cod_munici": 1400050.0, "municipio_": "ALTO ALEGRE", "tipo_de_es": "POLO BASE" }, "geometry": { "type": "Point", "coordinates": [ -63.6597, 2.8386 ] } },
{ "type": "Feature", "properties": { "cod_dsei": 33.0, "dsei": "YANOMAMI", "polo_base": "TOOTOTOBI", "cod_polo": "1646", "nome_da_es": "XIHUPI", "uf_ibge": "AM", "cod_munici": 1300409.0, "municipio_": "BARCELOS", "tipo_de_es": "POLO BASE" }, "geometry": { "type": "Point", "coordinates": [ -63.4492, 1.5175 ] } },
{ "type": "Feature", "properties": { "cod_dsei": 33.0, "dsei": "YANOMAMI", "polo_base": "WAIKÁS", "cod_polo": "1769", "nome_da_es": "WAIKÁS", "uf_ibge": "RR", "cod_munici": 1400050.0, "municipio_": "ALTO ALEGRE", "tipo_de_es": "POLO BASE" }, "geometry": { "type": "Point", "coordinates": [ -63.1696, 3.5528 ] } },
{ "type": "Feature", "properties": { "cod_dsei": 33.0, "dsei": "YANOMAMI", "polo_base": "HOMOXI", "cod_polo": "1645", "nome_da_es": "HOMOXI", "uf_ibge": "RR", "cod_munici": 1400282.0, "municipio_": "IRACEMA", "tipo_de_es": "POLO BASE" }, "geometry": { "type": "Point", "coordinates": [ -63.7288, 2.4975 ] } },
{ "type": "Feature", "properties": { "cod_dsei": 33.0, "dsei": "YANOMAMI", "polo_base": "URARICOERA", "cod_polo": "1644", "nome_da_es": "URARICOERA", "uf_ibge": "RR", "cod_munici": 1400050.0, "municipio_": "ALTO ALEGRE", "tipo_de_es": "POLO BASE" }, "geometry": { "type": "Point", "coordinates": [ -62.2376, 3.1531 ] } },
{ "type": "Feature", "properties": { "cod_dsei": 33.0, "dsei": "YANOMAMI", "polo_base": "SAUBA", "cod_polo": "1868", "nome_da_es": "SAÚBA", "uf_ibge": "RR", "cod_munici": 1400027.0, "municipio_": "AMAJARI", "tipo_de_es": "POLO BASE" }, "geometry": { "type": "Point", "coordinates": [ -62.5801, 3.8624 ] } },
{ "type": "Feature", "properties": { "cod_dsei": 33.0, "dsei": "YANOMAMI", "polo_base": "NOVO-DEMINI", "cod_polo": "1707", "nome_da_es": "NOVO DEMINI", "uf_ibge": "AM", "cod_munici": 1300409.0, "municipio_": "BARCELOS", "tipo_de_es": "POLO BASE" }, "geometry": { "type": "Point", "coordinates": [ -63.6557, 1.6148 ] } },
{ "type": "Feature", "properties": { "cod_dsei": 33.0, "dsei": "YANOMAMI", "polo_base": "TOOTOTOBI", "cod_polo": "1646", "nome_da_es": "TOOTOTOBÍ", "uf_ibge": "AM", "cod_munici": 1300409.0, "municipio_": "BARCELOS", "tipo_de_es": "POLO BASE" }, "geometry": { "type": "Point", "coordinates": [ -63.6248, 1.7632 ] } },
{ "type": "Feature", "properties": { "cod_dsei": 33.0, "dsei": "YANOMAMI", "polo_base": "CACHOEIRA DO ARACÁ", "cod_polo": "1580", "nome_da_es": "CACHOEIRA DO ARACÁ", "uf_ibge": "AM", "cod_munici": 1300409.0, "municipio_": "BARCELOS", "tipo_de_es": "POLO BASE" }, "geometry": { "type": "Point", "coordinates": [ -63.87, 0.8913 ] } },
{ "type": "Feature", "properties": { "cod_dsei": 12.0, "dsei": "VALE DO JAVARI", "polo_base": "MÉDIO JAVARI", "cod_polo": "1789", "nome_da_es": "SÃO LUIS", "uf_ibge": "AM", "cod_munici": 1300201.0, "municipio_": "ATALAIA DO NORTE", "tipo_de_es": "POLO BASE" }, "geometry": { "type": "Point", "coordinates": [ -71.3025, -4.3748 ] } },
{ "type": "Feature", "properties": { "cod_dsei": 12.0, "dsei": "VALE DO JAVARI", "polo_base": "JAQUIRANA", "cod_polo": "1790", "nome_da_es": "TRINTA E UM", "uf_ibge": "AM", "cod_munici": 1300201.0, "municipio_": "ATALAIA DO NORTE", "tipo_de_es": "POLO BASE" }, "geometry": { "type": "Point", "coordinates": [ -72.9616, -5.5275 ] } },
{ "type": "Feature", "properties": { "cod_dsei": 12.0, "dsei": "VALE DO JAVARI", "polo_base": "MÉDIO CURUÇA", "cod_polo": "1561", "nome_da_es": "SÃO SEBASTIÃO", "uf_ibge": "AM", "cod_munici": 1300201.0, "municipio_": "ATALAIA DO NORTE", "tipo_de_es": "POLO BASE" }, "geometry": { "type": "Point", "coordinates": [ -72.0825, -5.8597 ] } },
{ "type": "Feature", "properties": { "cod_dsei": 12.0, "dsei": "VALE DO JAVARI", "polo_base": "ALTO ITUÍ", "cod_polo": "1793", "nome_da_es": "VIDA NOVA", "uf_ibge": "AM", "cod_munici": 1300201.0, "municipio_": "ATALAIA DO NORTE", "tipo_de_es": "POLO BASE" }, "geometry": { "type": "Point", "coordinates": [ -72.1702, -6.8934 ] } },
{ "type": "Feature", "properties": { "cod_dsei": 12.0, "dsei": "VALE DO JAVARI", "polo_base": "SEM INFORMAÇÃO", "cod_polo": "SEM INFORMAÇÃO", "nome_da_es": "BAPE - BASE DE PROTEÇÃO ETNOAMBIENTAL - CURUÇÁ", "uf_ibge": "AM", "cod_munici": 1300201.0, "municipio_": "ATALAIA DO NORTE", "tipo_de_es": "BASE" }, "geometry": { "type": "Point", "coordinates": [ -71.3783, -4.4672 ] } },
{ "type": "Feature", "properties": { "cod_dsei": 12.0, "dsei": "VALE DO JAVARI", "polo_base": "ITACOAÍ", "cod_polo": "1791", "nome_da_es": "MASSAPÊ", "uf_ibge": "AM", "cod_munici": 1300201.0, "municipio_": "ATALAIA DO NORTE", "tipo_de_es": "POLO BASE" }, "geometry": { "type": "Point", "coordinates": [ -70.4876, -5.7183 ] } },
{ "type": "Feature", "properties": { "cod_dsei": 12.0, "dsei": "VALE DO JAVARI", "polo_base": "ALTO CURUÇÁ", "cod_polo": "1794", "nome_da_es": "MARONAL", "uf_ibge": "AM", "cod_munici": 1300201.0, "municipio_": "ATALAIA DO NORTE", "tipo_de_es": "POLO BASE" }, "geometry": { "type": "Point", "coordinates": [ -72.7058, -6.5831 ] } },
{ "type": "Feature", "properties": { "cod_dsei": 12.0, "dsei": "VALE DO JAVARI", "polo_base": "SEM INFORMAÇÃO", "cod_polo": "SEM INFORMAÇÃO", "nome_da_es": "BAPE - BASE DE PROTEÇÃO ETNOAMBIENTAL - JANDIÁTUBA", "uf_ibge": "AM", "cod_munici": 1303907.9999999998, "municipio_": "SÃO PAULO DE OLIVENÇA", "tipo_de_es": "BASE" }, "geometry": { "type": "Point", "coordinates": [ -69.7736, -4.8631 ] } },
{ "type": "Feature", "properties": { "cod_dsei": 12.0, "dsei": "VALE DO JAVARI", "polo_base": "SEM INFORMAÇÃO", "cod_polo": "SEM INFORMAÇÃO", "nome_da_es": "BAPE - BASE DE PROTEÇÃO ETNOAMBIENTAL - QUIXITO", "uf_ibge": "AM", "cod_munici": 1300201.0, "municipio_": "ATALAIA DO NORTE", "tipo_de_es": "BASE" }, "geometry": { "type": "Point", "coordinates": [ -70.5061, -4.5063 ] } },
{ "type": "Feature", "properties": { "cod_dsei": 12.0, "dsei": "VALE DO JAVARI", "polo_base": "SEM INFORMAÇÃO", "cod_polo": "SEM INFORMAÇÃO", "nome_da_es": "BAPE - BASE DE PROTEÇÃO ETNOAMBIENTAL - FIGUEREDO", "uf_ibge": "AM", "cod_munici": 1300201.0, "municipio_": "ATALAIA DO NORTE", "tipo_de_es": "BASE" }, "geometry": { "type": "Point", "coordinates": [ -70.7702, -4.6815 ] } },
{ "type": "Feature", "properties": { "cod_dsei": 12.0, "dsei": "VALE DO JAVARI", "polo_base": "SEM INFORMAÇÃO", "cod_polo": "SEM INFORMAÇÃO", "nome_da_es": "BAPE - BASE DE PROTEÇÃO ETNOAMBIENTAL - COARI", "uf_ibge": "AM", "cod_munici": 1300201.0, "municipio_": "ATALAIA DO NORTE", "tipo_de_es": "BASE" }, "geometry": { "type": "Point", "coordinates": [ -70.8987, -5.3282 ] } },
{ "type": "Feature", "properties": { "cod_dsei": 7.0, "dsei": "ALTO RIO SOLIMÕES", "polo_base": "UMARIAÇÚ I", "cod_polo": "1566", "nome_da_es": "UMARIAÇU I", "uf_ibge": "AM", "cod_munici": 1304062.0, "municipio_": "TABATINGA", "tipo_de_es": "POLO BASE" }, "geometry": { "type": "Point", "coordinates": [ -69.9443, -4.2618 ] } },
{ "type": "Feature", "properties": { "cod_dsei": 7.0, "dsei": "ALTO RIO SOLIMÕES", "polo_base": "UMARIAÇÚ II", "cod_polo": "1556", "nome_da_es": "UMARIAÇU II", "uf_ibge": "AM", "cod_munici": 1304062.0, "municipio_": "TABATINGA", "tipo_de_es": "POLO BASE" }, "geometry": { "type": "Point", "coordinates": [ -69.6294, -4.2695 ] } },
{ "type": "Feature", "properties": { "cod_dsei": 7.0, "dsei": "ALTO RIO SOLIMÕES", "polo_base": "BELÉM DO SOLIMÕES", "cod_polo": "1629", "nome_da_es": "BELÉM DO SOLIMÕES", "uf_ibge": "AM", "cod_munici": 1304062.0, "municipio_": "TABATINGA", "tipo_de_es": "POLO BASE" }, "geometry": { "type": "Point", "coordinates": [ -69.5244, -4.0414 ] } },
{ "type": "Feature", "properties": { "cod_dsei": 7.0, "dsei": "ALTO RIO SOLIMÕES", "polo_base": "FILADÉLFIA", "cod_polo": "1567", "nome_da_es": "FILADÉLFIA", "uf_ibge": "AM", "cod_munici": 1300607.0, "municipio_": "BENJAMIN CONSTANT", "tipo_de_es": "POLO BASE" }, "geometry": { "type": "Point", "coordinates": [ -68.0044, -3.6183 ] } },
{ "type": "Feature", "properties": { "cod_dsei": 7.0, "dsei": "ALTO RIO SOLIMÕES", "polo_base": "FEIJOAL", "cod_polo": "1675", "nome_da_es": "FEIJOAL", "uf_ibge": "AM", "cod_munici": 1300607.0, "municipio_": "BENJAMIN CONSTANT", "tipo_de_es": "POLO BASE" }, "geometry": { "type": "Point", "coordinates": [ -68.4558, -3.7064 ] } },
{ "type": "Feature", "properties": { "cod_dsei": 7.0, "dsei": "ALTO RIO SOLIMÕES", "polo_base": "VENDAVAL", "cod_polo": "1630", "nome_da_es": "VENDAVAL", "uf_ibge": "AM", "cod_munici": 1303907.9999999998, "municipio_": "SÃO PAULO DE OLIVENÇA", "tipo_de_es": "POLO BASE" }, "geometry": { "type": "Point", "coordinates": [ -69.4471, -3.7114 ] } },
{ "type": "Feature", "properties": { "cod_dsei": 7.0, "dsei": "ALTO RIO SOLIMÕES", "polo_base": "BETÂNIA", "cod_polo": "1677", "nome_da_es": "BETÂNIA", "uf_ibge": "AM", "cod_munici": 1303699.9999999998, "municipio_": "SANTO ANTÔNIO DO IÇÁ", "tipo_de_es": "POLO BASE" }, "geometry": { "type": "Point", "coordinates": [ -68.067, -3.074 ] } },
{ "type": "Feature", "properties": { "cod_dsei": 7.0, "dsei": "ALTO RIO SOLIMÕES", "polo_base": "NOVA ITÁLIA", "cod_polo": "1678", "nome_da_es": "NOVA ITÁLIA", "uf_ibge": "AM", "cod_munici": 1300060.0000000002, "municipio_": "AMATURÁ", "tipo_de_es": "POLO BASE" }, "geometry": { "type": "Point", "coordinates": [ -68.2251, -3.4093 ] } },
{ "type": "Feature", "properties": { "cod_dsei": 12.0, "dsei": "VALE DO JAVARI", "polo_base": "SEM INFORMAÇÃO", "cod_polo": "SEM INFORMAÇÃO", "nome_da_es": "BAPE - BASE DE PROTEÇÃO ETNOAMBIENTAL - JARINAL", "uf_ibge": "AM", "cod_munici": 1302306.0, "municipio_": "JUTAÍ", "tipo_de_es": "BASE" }, "geometry": { "type": "Point", "coordinates": [ -69.4503, -5.8031 ] } },
{ "type": "Feature", "properties": { "cod_dsei": 7.0, "dsei": "ALTO RIO SOLIMÕES", "polo_base": "TONANTINS", "cod_polo": "1679", "nome_da_es": "TONANTINS", "uf_ibge": "AM", "cod_munici": 1304237.0, "municipio_": "TONANTINS", "tipo_de_es": "POLO BASE" }, "geometry": { "type": "Point", "coordinates": [ -67.5915, -2.7535 ] } },
{ "type": "Feature", "properties": { "cod_dsei": 5.0, "dsei": "ALTO RIO PURUS", "polo_base": "MANOEL URBANO", "cod_polo": "1735", "nome_da_es": "MANOEL URBANO", "uf_ibge": "AC", "cod_munici": 1200344.0, "municipio_": "MANOEL URBANO", "tipo_de_es": "POLO BASE" }, "geometry": { "type": "Point", "coordinates": [ -69.2623, -8.8376 ] } },
{ "type": "Feature", "properties": { "cod_dsei": 5.0, "dsei": "ALTO RIO PURUS", "polo_base": "ASSIS BRASIL", "cod_polo": "1774", "nome_da_es": "ASSIS BRASIL", "uf_ibge": "AC", "cod_munici": 1200054.0, "municipio_": "ASSIS BRASIL", "tipo_de_es": "POLO BASE" }, "geometry": { "type": "Point", "coordinates": [ -69.5666, -10.9376 ] } },
{ "type": "Feature", "properties": { "cod_dsei": 5.0, "dsei": "ALTO RIO PURUS", "polo_base": "SENA MADUREIRA", "cod_polo": "1773", "nome_da_es": "SENA MADUREIRA", "uf_ibge": "AC", "cod_munici": 1200499.9999999998, "municipio_": "SENA MADUREIRA", "tipo_de_es": "POLO BASE" }, "geometry": { "type": "Point", "coordinates": [ -68.6551, -9.0665 ] } },
{ "type": "Feature", "properties": { "cod_dsei": 26.0, "dsei": "CUIABÁ", "polo_base": "SEM INFORMAÇÃO", "cod_polo": "SEM INFORMAÇÃO", "nome_da_es": "CAF", "uf_ibge": "MT", "cod_munici": 5103402.9999999991, "municipio_": "CUIABÁ", "tipo_de_es": "CENTRO DE ABASTECIMENTO FARMACÊUTICO" }, "geometry": { "type": "Point", "coordinates": [ -56.09, -15.6001 ] } },
{ "type": "Feature", "properties": { "cod_dsei": 5.0, "dsei": "ALTO RIO PURUS", "polo_base": "EXTREMA", "cod_polo": "2037", "nome_da_es": "EXTREMA", "uf_ibge": "RO", "cod_munici": 1100205.0, "municipio_": "PORTO VELHO", "tipo_de_es": "POLO BASE" }, "geometry": { "type": "Point", "coordinates": [ -66.3573, -9.7693 ] } },
{ "type": "Feature", "properties": { "cod_dsei": 5.0, "dsei": "ALTO RIO PURUS", "polo_base": "PAUINI", "cod_polo": "1739", "nome_da_es": "PAUINI", "uf_ibge": "AM", "cod_munici": 1303502.0, "municipio_": "PAUINI", "tipo_de_es": "POLO BASE" }, "geometry": { "type": "Point", "coordinates": [ -66.9985, -7.7092 ] } },
{ "type": "Feature", "properties": { "cod_dsei": 5.0, "dsei": "ALTO RIO PURUS", "polo_base": "BOCA DO ACRE", "cod_polo": "1571", "nome_da_es": "BOCA DO ACRE", "uf_ibge": "AM", "cod_munici": 1300706.0, "municipio_": "BOCA DO ACRE", "tipo_de_es": "POLO BASE" }, "geometry": { "type": "Point", "coordinates": [ -67.3293, -8.7757 ] } },
{ "type": "Feature", "properties": { "cod_dsei": 27.0, "dsei": "RIO TAPAJÓS", "polo_base": "ITAITUBA", "cod_polo": "1838", "nome_da_es": "ITAITUBA", "uf_ibge": "PA", "cod_munici": 1503606.0, "municipio_": "ITAITUBA", "tipo_de_es": "POLO BASE" }, "geometry": { "type": "Point", "coordinates": [ -57.7556, -6.2229 ] } },
{ "type": "Feature", "properties": { "cod_dsei": 12.0, "dsei": "VALE DO JAVARI", "polo_base": "SEM INFORMAÇÃO", "cod_polo": "SEM INFORMAÇÃO", "nome_da_es": "CAPAI", "uf_ibge": "AM", "cod_munici": 1304062.0, "municipio_": "TABATINGA", "tipo_de_es": "PONTO DE APOIO" }, "geometry": { "type": "Point", "coordinates": [ -69.9209, -4.2182 ] } },
{ "type": "Feature", "properties": { "cod_dsei": 27.0, "dsei": "RIO TAPAJÓS", "polo_base": "KATÕ", "cod_polo": "1829", "nome_da_es": "KATÕ", "uf_ibge": "PA", "cod_munici": 1503754.0, "municipio_": "JACAREACANGA", "tipo_de_es": "POLO BASE" }, "geometry": { "type": "Point", "coordinates": [ -57.6294, -6.6465 ] } },
{ "type": "Feature", "properties": { "cod_dsei": 27.0, "dsei": "RIO TAPAJÓS", "polo_base": "CAROÇAL DO RIO DAS TROPAS", "cod_polo": "1846", "nome_da_es": "RIO DAS TROPAS", "uf_ibge": "PA", "cod_munici": 1503754.0, "municipio_": "JACAREACANGA", "tipo_de_es": "POLO BASE" }, "geometry": { "type": "Point", "coordinates": [ -57.4341, -6.8269 ] } },
{ "type": "Feature", "properties": { "cod_dsei": 27.0, "dsei": "RIO TAPAJÓS", "polo_base": "RESTINGA", "cod_polo": "1845", "nome_da_es": "RESTINGA", "uf_ibge": "PA", "cod_munici": 1503754.0, "municipio_": "JACAREACANGA", "tipo_de_es": "POLO BASE" }, "geometry": { "type": "Point", "coordinates": [ -58.1373, -7.2066 ] } },
{ "type": "Feature", "properties": { "cod_dsei": 27.0, "dsei": "RIO TAPAJÓS", "polo_base": "WARO APAMPU(POSTO MDK)", "cod_polo": "1843", "nome_da_es": "WARO APOMPÕ", "uf_ibge": "PA", "cod_munici": 1503754.0, "municipio_": "JACAREACANGA", "tipo_de_es": "POLO BASE" }, "geometry": { "type": "Point", "coordinates": [ -57.8909, -7.4405 ] } },
{ "type": "Feature", "properties": { "cod_dsei": 27.0, "dsei": "RIO TAPAJÓS", "polo_base": "MISSÃO CURURU", "cod_polo": "1844", "nome_da_es": "MISSÃO SÃO FRANCISCO", "uf_ibge": "PA", "cod_munici": 1503754.0, "municipio_": "JACAREACANGA", "tipo_de_es": "POLO BASE" }, "geometry": { "type": "Point", "coordinates": [ -57.7344, -7.5641 ] } },
{ "type": "Feature", "properties": { "cod_dsei": 27.0, "dsei": "RIO TAPAJÓS", "polo_base": "TELES PIRES", "cod_polo": "1834", "nome_da_es": "TELES PIRES", "uf_ibge": "PA", "cod_munici": 1503754.0, "municipio_": "JACAREACANGA", "tipo_de_es": "POLO BASE" }, "geometry": { "type": "Point", "coordinates": [ -57.6738, -8.3909 ] } },
{ "type": "Feature", "properties": { "cod_dsei": 27.0, "dsei": "RIO TAPAJÓS", "polo_base": "SAI CINZA", "cod_polo": "1827", "nome_da_es": "SAI CINZA", "uf_ibge": "PA", "cod_munici": 1503754.0, "municipio_": "JACAREACANGA", "tipo_de_es": "POLO BASE" }, "geometry": { "type": "Point", "coordinates": [ -57.8359, -6.2993 ] } },
{ "type": "Feature", "properties": { "cod_dsei": 26.0, "dsei": "CUIABÁ", "polo_base": "RIO VERDE", "cod_polo": "1899", "nome_da_es": "RIO VERDE", "uf_ibge": "MT", "cod_munici": 5107958.0, "municipio_": "TANGARÁ DA SERRA", "tipo_de_es": "POLO BASE" }, "geometry": { "type": "Point", "coordinates": [ -58.2361, -14.3813 ] } },
{ "type": "Feature", "properties": { "cod_dsei": 26.0, "dsei": "CUIABÁ", "polo_base": "BACAVAL", "cod_polo": "1897", "nome_da_es": "BACAVAL", "uf_ibge": "MT", "cod_munici": 5102637.0, "municipio_": "CAMPO NOVO DO PARECIS", "tipo_de_es": "POLO BASE" }, "geometry": { "type": "Point", "coordinates": [ -58.2887, -13.6423 ] } },
{ "type": "Feature", "properties": { "cod_dsei": 26.0, "dsei": "CUIABÁ", "polo_base": "TRES LAGOAS", "cod_polo": "1898", "nome_da_es": "TRÊS LAGOAS", "uf_ibge": "MT", "cod_munici": 5103361.0, "municipio_": "CONQUISTA D'OESTE", "tipo_de_es": "POLO BASE" }, "geometry": { "type": "Point", "coordinates": [ -59.0593, -14.5315 ] } },
{ "type": "Feature", "properties": { "cod_dsei": 26.0, "dsei": "CUIABÁ", "polo_base": "MERURI", "cod_polo": "1901", "nome_da_es": "MERURI", "uf_ibge": "MT", "cod_munici": 5103908.0, "municipio_": "GENERAL CARNEIRO", "tipo_de_es": "POLO BASE" }, "geometry": { "type": "Point", "coordinates": [ -53.0797, -15.5438 ] } },
{ "type": "Feature", "properties": { "cod_dsei": 31.0, "dsei": "XAVANTE", "polo_base": "SÃO MARCOS", "cod_polo": "1802", "nome_da_es": "SÃO MARCOS", "uf_ibge": "MT", "cod_munici": 5101802.9999999991, "municipio_": "BARRA DO GARÇAS", "tipo_de_es": "POLO BASE" }, "geometry": { "type": "Point", "coordinates": [ -52.9032, -15.3771 ] } },
{ "type": "Feature", "properties": { "cod_dsei": 31.0, "dsei": "XAVANTE", "polo_base": "SANGRADOURO", "cod_polo": "1607", "nome_da_es": "SÃO JOSÉ DE SANGRADOURO", "uf_ibge": "MT", "cod_munici": 5103908.0, "municipio_": "GENERAL CARNEIRO", "tipo_de_es": "POLO BASE" }, "geometry": { "type": "Point", "coordinates": [ -53.9058, -15.6472 ] } },
{ "type": "Feature", "properties": { "cod_dsei": 11.0, "dsei": "MINAS GERAIS E ESPÍRITO SANTO", "polo_base": "ÁGUA BOA", "cod_polo": "1674", "nome_da_es": "JOVIEL", "uf_ibge": "MG", "cod_munici": 3157658.0, "municipio_": "SANTA HELENA DE MINAS", "tipo_de_es": "POLO BASE" }, "geometry": { "type": "Point", "coordinates": [ -41.9444, -18.8686 ] } },
{ "type": "Feature", "properties": { "cod_dsei": 11.0, "dsei": "MINAS GERAIS E ESPÍRITO SANTO", "polo_base": "BELA VISTA", "cod_polo": "1573", "nome_da_es": "XUKURU", "uf_ibge": "MG", "cod_munici": 3110301.0, "municipio_": "CALDAS", "tipo_de_es": "POLO BASE" }, "geometry": { "type": "Point", "coordinates": [ -46.3348, -21.9429 ] } },
{ "type": "Feature", "properties": { "cod_dsei": 11.0, "dsei": "MINAS GERAIS E ESPÍRITO SANTO", "polo_base": "BREJO MATA FOME", "cod_polo": "1634", "nome_da_es": "BREJO MATA FOME", "uf_ibge": "MG", "cod_munici": 3162450.0, "municipio_": "SÃO JOÃO DAS MISSÕES", "tipo_de_es": "POLO BASE" }, "geometry": { "type": "Point", "coordinates": [ -46.3348, -21.9429 ] } },
{ "type": "Feature", "properties": { "cod_dsei": 11.0, "dsei": "MINAS GERAIS E ESPÍRITO SANTO", "polo_base": "CAIERAS VELHA", "cod_polo": "1506", "nome_da_es": "CAIEIRAS VELHA", "uf_ibge": "ES", "cod_munici": 3200607.0, "municipio_": "ARACRUZ", "tipo_de_es": "POLO BASE" }, "geometry": { "type": "Point", "coordinates": [ -40.1715, -19.924 ] } },
{ "type": "Feature", "properties": { "cod_dsei": 11.0, "dsei": "MINAS GERAIS E ESPÍRITO SANTO", "polo_base": "CAPÃO DO ZEZINHO", "cod_polo": "1861", "nome_da_es": "CAPÃO DO ZEZINHO", "uf_ibge": "MG", "cod_munici": 3140506.0, "municipio_": "MARTINHO CAMPOS", "tipo_de_es": "POLO BASE" }, "geometry": { "type": "Point", "coordinates": [ -45.0722, -19.3411 ] } },
{ "type": "Feature", "properties": { "cod_dsei": 11.0, "dsei": "MINAS GERAIS E ESPÍRITO SANTO", "polo_base": "CAMPANÁRIO", "cod_polo": "1878", "nome_da_es": "CÓRREGO DO PEZINHO", "uf_ibge": "MG", "cod_munici": 3110806.0, "municipio_": "CAMPANÁRIO", "tipo_de_es": "POLO BASE" }, "geometry": { "type": "Point", "coordinates": [ -41.673, -18.225 ] } },
{ "type": "Feature", "properties": { "cod_dsei": 11.0, "dsei": "MINAS GERAIS E ESPÍRITO SANTO", "polo_base": "COMBOIOS", "cod_polo": "1507", "nome_da_es": "COMBÓIOS", "uf_ibge": "ES", "cod_munici": 3200607.0, "municipio_": "ARACRUZ (município do ES)", "tipo_de_es": "POLO BASE" }, "geometry": { "type": "Point", "coordinates": [ -40.0092, -19.745 ] } },
{ "type": "Feature", "properties": { "cod_dsei": 11.0, "dsei": "MINAS GERAIS E ESPÍRITO SANTO", "polo_base": "ITAPECERICA", "cod_polo": "1881", "nome_da_es": "MUÃ MIMATXI", "uf_ibge": "MG", "cod_munici": 3133501.0, "municipio_": "ITAPECERICA", "tipo_de_es": "POLO BASE" }, "geometry": { "type": "Point", "coordinates": [ -45.0427, -20.4692 ] } },
{ "type": "Feature", "properties": { "cod_dsei": 11.0, "dsei": "MINAS GERAIS E ESPÍRITO SANTO", "polo_base": "ITAPICURU", "cod_polo": "1860", "nome_da_es": "ITAPICURU", "uf_ibge": "MG", "cod_munici": 3162450.0, "municipio_": "SÃO JOÃO DAS MISSÕES", "tipo_de_es": "POLO BASE" }, "geometry": { "type": "Point", "coordinates": [ -44.245, -14.7906 ] } },
{ "type": "Feature", "properties": { "cod_dsei": 11.0, "dsei": "MINAS GERAIS E ESPÍRITO SANTO", "polo_base": "LADAINHA", "cod_polo": "1625", "nome_da_es": "NOÊMIA", "uf_ibge": "MG", "cod_munici": 3137007.0, "municipio_": "LADAINHA", "tipo_de_es": "POLO BASE" }, "geometry": { "type": "Point", "coordinates": [ -41.6676, -17.6499 ] } },
{ "type": "Feature", "properties": { "cod_dsei": 11.0, "dsei": "MINAS GERAIS E ESPÍRITO SANTO", "polo_base": "PINDAÍBA", "cod_polo": "1859", "nome_da_es": "PINDAÍBAS", "uf_ibge": "MG", "cod_munici": 3162450.0, "municipio_": "SÃO JOÃO DAS MISSÕES", "tipo_de_es": "POLO BASE" }, "geometry": { "type": "Point", "coordinates": [ -44.3628, -14.8779 ] } },
{ "type": "Feature", "properties": { "cod_dsei": 11.0, "dsei": "MINAS GERAIS E ESPÍRITO SANTO", "polo_base": "RANCHARIA", "cod_polo": "1673", "nome_da_es": "TENDA", "uf_ibge": "MG", "cod_munici": 3162450.0, "municipio_": "SÃO JOÃO DAS MISSÕES", "tipo_de_es": "POLO BASE" }, "geometry": { "type": "Point", "coordinates": [ -44.0671, -14.9464 ] } },
{ "type": "Feature", "properties": { "cod_dsei": 11.0, "dsei": "MINAS GERAIS E ESPÍRITO SANTO", "polo_base": "RESPLENDOR", "cod_polo": "1686", "nome_da_es": "UATÚ", "uf_ibge": "MG", "cod_munici": 3154309.0, "municipio_": "RESPLENDOR", "tipo_de_es": "POLO BASE" }, "geometry": { "type": "Point", "coordinates": [ -41.3196, -19.2262 ] } },
{ "type": "Feature", "properties": { "cod_dsei": 11.0, "dsei": "MINAS GERAIS E ESPÍRITO SANTO", "polo_base": "SUMARÉ", "cod_polo": "1672", "nome_da_es": "SUMARÉ I", "uf_ibge": "MG", "cod_munici": 3162450.0, "municipio_": "SÃO JOÃO DAS MISSÕES", "tipo_de_es": "POLO BASE" }, "geometry": { "type": "Point", "coordinates": [ -44.2683, -14.8992 ] } },
{ "type": "Feature", "properties": { "cod_dsei": 9.0, "dsei": "BAHIA", "polo_base": "EUCLIDES DA CUNHA", "cod_polo": "1886", "nome_da_es": "EUCLIDES DA CUNHA", "uf_ibge": "BA", "cod_munici": 2910701.0, "municipio_": "EUCLIDES DA CUNHA", "tipo_de_es": "POLO BASE" }, "geometry": { "type": "Point", "coordinates": [ -39.0146, -10.5034 ] } },
{ "type": "Feature", "properties": { "cod_dsei": 9.0, "dsei": "BAHIA", "polo_base": "PAULO AFONSO", "cod_polo": "1786", "nome_da_es": "PAULO AFONSO", "uf_ibge": "BA", "cod_munici": 2924009.0, "municipio_": "PAULO AFONSO", "tipo_de_es": "POLO BASE" }, "geometry": { "type": "Point", "coordinates": [ -38.2332, -9.3958 ] } },
{ "type": "Feature", "properties": { "cod_dsei": 9.0, "dsei": "BAHIA", "polo_base": "IBOTIRAMA", "cod_polo": "1730", "nome_da_es": "IBOTIRAMA", "uf_ibge": "BA", "cod_munici": 2913200.0, "municipio_": "IBOTIRAMA", "tipo_de_es": "POLO BASE" }, "geometry": { "type": "Point", "coordinates": [ -43.2136, -12.1844 ] } },
{ "type": "Feature", "properties": { "cod_dsei": 9.0, "dsei": "BAHIA", "polo_base": "ILHÉUS", "cod_polo": "1785", "nome_da_es": "ILHÉUS", "uf_ibge": "BA", "cod_munici": 2913606.0, "municipio_": "ILHÉUS", "tipo_de_es": "POLO BASE" }, "geometry": { "type": "Point", "coordinates": [ -39.0461, -14.787 ] } },
{ "type": "Feature", "properties": { "cod_dsei": 9.0, "dsei": "BAHIA", "polo_base": "PAU BRASIL", "cod_polo": "2024", "nome_da_es": "PAU BRASIL", "uf_ibge": "BA", "cod_munici": 2923902.0, "municipio_": "PAU BRASIL", "tipo_de_es": "POLO BASE" }, "geometry": { "type": "Point", "coordinates": [ -39.6531, -15.4642 ] } },
{ "type": "Feature", "properties": { "cod_dsei": 9.0, "dsei": "BAHIA", "polo_base": "PORTO SEGURO", "cod_polo": "1787", "nome_da_es": "PORTO SEGURO", "uf_ibge": "BA", "cod_munici": 2925303.0, "municipio_": "PORTO SEGURO", "tipo_de_es": "POLO BASE" }, "geometry": { "type": "Point", "coordinates": [ -39.0924, -16.4087 ] } },
{ "type": "Feature", "properties": { "cod_dsei": 9.0, "dsei": "BAHIA", "polo_base": "ITAMARAJU", "cod_polo": "1887", "nome_da_es": "ITAMARAJU", "uf_ibge": "BA", "cod_munici": 2915601.0, "municipio_": "ITAMARAJU", "tipo_de_es": "POLO BASE" }, "geometry": { "type": "Point", "coordinates": [ -39.0924, -16.4087 ] } },
{ "type": "Feature", "properties": { "cod_dsei": 31.0, "dsei": "XAVANTE", "polo_base": "MARÃIWATSEDE", "cod_polo": "1606", "nome_da_es": "MARÃIWATESÉDE", "uf_ibge": "MT", "cod_munici": 5100359.0, "municipio_": "ALTO BOA VISTA", "tipo_de_es": "POLO BASE" }, "geometry": { "type": "Point", "coordinates": [ -51.6829, -11.898 ] } },
{ "type": "Feature", "properties": { "cod_dsei": 25.0, "dsei": "POTIGUARA", "polo_base": "BAÍA DA TRAIÇÃO", "cod_polo": "1751", "nome_da_es": "FORTE", "uf_ibge": "PB", "cod_munici": 2501401.0, "municipio_": "BAÍA DA TRAIÇÃO", "tipo_de_es": "POLO BASE" }, "geometry": { "type": "Point", "coordinates": [ -34.9551, -6.6702 ] } },
{ "type": "Feature", "properties": { "cod_dsei": 28.0, "dsei": "MÉDIO RIO SOLIMÕES E AFLUENTES", "polo_base": "BIÁ", "cod_polo": "1778", "nome_da_es": "BOCA DO BIÁ", "uf_ibge": "AM", "cod_munici": 1302306.0, "municipio_": "JUTAÍ", "tipo_de_es": "POLO BASE" }, "geometry": { "type": "Point", "coordinates": [ -67.513, -3.5909 ] } },
{ "type": "Feature", "properties": { "cod_dsei": 28.0, "dsei": "MÉDIO RIO SOLIMÕES E AFLUENTES", "polo_base": "BUGAIO", "cod_polo": "1711", "nome_da_es": "ESTRELA DA PAZ", "uf_ibge": "AM", "cod_munici": 1302306.0, "municipio_": "JUTAÍ", "tipo_de_es": "POLO BASE" }, "geometry": { "type": "Point", "coordinates": [ -66.8989, -2.8216 ] } },
{ "type": "Feature", "properties": { "cod_dsei": 28.0, "dsei": "MÉDIO RIO SOLIMÕES E AFLUENTES", "polo_base": "EIRUNEPÉ", "cod_polo": "1714", "nome_da_es": "MAMORÍ", "uf_ibge": "AM", "cod_munici": 1301407.0, "municipio_": "EIRUNEPÉ", "tipo_de_es": "POLO BASE" }, "geometry": { "type": "Point", "coordinates": [ -69.5625, -6.6507 ] } },
{ "type": "Feature", "properties": { "cod_dsei": 28.0, "dsei": "MÉDIO RIO SOLIMÕES E AFLUENTES", "polo_base": "ENVIRA", "cod_polo": "1780", "nome_da_es": "MACAPÁ", "uf_ibge": "AM", "cod_munici": 1301506.0, "municipio_": "ENVIRA", "tipo_de_es": "POLO BASE" }, "geometry": { "type": "Point", "coordinates": [ -70.6175, -7.6903 ] } },
{ "type": "Feature", "properties": { "cod_dsei": 28.0, "dsei": "MÉDIO RIO SOLIMÕES E AFLUENTES", "polo_base": "MORADA NOVA", "cod_polo": "1715", "nome_da_es": "MORADA NOVA", "uf_ibge": "AM", "cod_munici": 1301951.0, "municipio_": "ITAMARATI", "tipo_de_es": "POLO BASE" }, "geometry": { "type": "Point", "coordinates": [ -67.8746, -6.355 ] } },
{ "type": "Feature", "properties": { "cod_dsei": 28.0, "dsei": "MÉDIO RIO SOLIMÕES E AFLUENTES", "polo_base": "IPIXUNA", "cod_polo": "1781", "nome_da_es": "PIAU", "uf_ibge": "AM", "cod_munici": 1301803.0, "municipio_": "IPIXUNA", "tipo_de_es": "POLO BASE" }, "geometry": { "type": "Point", "coordinates": [ -70.7561, -6.8642 ] } },
{ "type": "Feature", "properties": { "cod_dsei": 28.0, "dsei": "MÉDIO RIO SOLIMÕES E AFLUENTES", "polo_base": "MARAJAÍ", "cod_polo": "1713", "nome_da_es": "MARAJAÍ", "uf_ibge": "AM", "cod_munici": 1300029.0, "municipio_": "ALVARÃES", "tipo_de_es": "POLO BASE" }, "geometry": { "type": "Point", "coordinates": [ -64.8282, -3.1785 ] } },
{ "type": "Feature", "properties": { "cod_dsei": 28.0, "dsei": "MÉDIO RIO SOLIMÕES E AFLUENTES", "polo_base": "BUÁ-BUÁ", "cod_polo": "1710", "nome_da_es": "BUÁ-BUÁ", "uf_ibge": "AM", "cod_munici": 1302108.0000000002, "municipio_": "JAPURÁ", "tipo_de_es": "POLO BASE" }, "geometry": { "type": "Point", "coordinates": [ -66.8879, -1.72 ] } },
{ "type": "Feature", "properties": { "cod_dsei": 28.0, "dsei": "MÉDIO RIO SOLIMÕES E AFLUENTES", "polo_base": "KUMARÚ", "cod_polo": "1716", "nome_da_es": "KUMARU", "uf_ibge": "AM", "cod_munici": 1302207.0, "municipio_": "JURUÁ", "tipo_de_es": "POLO BASE" }, "geometry": { "type": "Point", "coordinates": [ -65.8051, -2.917 ] } },
{ "type": "Feature", "properties": { "cod_dsei": 28.0, "dsei": "MÉDIO RIO SOLIMÕES E AFLUENTES", "polo_base": "BARREIRA DA MISSÃO", "cod_polo": "1712", "nome_da_es": "BETEL", "uf_ibge": "AM", "cod_munici": 1304203.0, "municipio_": "TEFÉ", "tipo_de_es": "POLO BASE" }, "geometry": { "type": "Point", "coordinates": [ -64.6317, -3.3966 ] } },
{ "type": "Feature", "properties": { "cod_dsei": 35.0, "dsei": "LITORAL SUL", "polo_base": "RIO SILVEIRA", "cod_polo": "1731", "nome_da_es": "RIO SILVEIRA", "uf_ibge": "SP", "cod_munici": 3550704.0, "municipio_": "SÃO SEBASTIÃO", "tipo_de_es": "POLO BASE" }, "geometry": { "type": "Point", "coordinates": [ -45.8171, -23.7407 ] } },
{ "type": "Feature", "properties": { "cod_dsei": 26.0, "dsei": "CUIABÁ", "polo_base": "CHIQUITANO", "cod_polo": "1756", "nome_da_es": "NAUTUKIRS PISIORS", "uf_ibge": "MT", "cod_munici": 5106828.0, "municipio_": "PORTO ESPERIDIÃO", "tipo_de_es": "POLO BASE" }, "geometry": { "type": "Point", "coordinates": [ -59.4488, -16.2389 ] } },
{ "type": "Feature", "properties": { "cod_dsei": 17.0, "dsei": "MANAUS", "polo_base": "MURUTINGA", "cod_polo": "1583", "nome_da_es": "MURUTINGA", "uf_ibge": "AM", "cod_munici": 1300300.0000000002, "municipio_": "AUTAZES", "tipo_de_es": "POLO BASE" }, "geometry": { "type": "Point", "coordinates": [ -59.2531, -3.3756 ] } },
{ "type": "Feature", "properties": { "cod_dsei": 15.0, "dsei": "LESTE DE RORAIMA", "polo_base": "TRÊS CORAÇÕES", "cod_polo": "1663", "nome_da_es": "PONTA DA SERRA", "uf_ibge": "RR", "cod_munici": 1400027.0, "municipio_": "AMAJARI", "tipo_de_es": "POLO BASE" }, "geometry": { "type": "Point", "coordinates": [ -60.9313, 3.5906 ] } },
{ "type": "Feature", "properties": { "cod_dsei": 17.0, "dsei": "MANAUS", "polo_base": "MAKIRA (NOVA JERUSALÉM)", "cod_polo": "1848", "nome_da_es": "MAKIRA", "uf_ibge": "AM", "cod_munici": 1301902.0, "municipio_": "ITACOATIARA", "tipo_de_es": "POLO BASE" }, "geometry": { "type": "Point", "coordinates": [ -58.8853, -3.1169 ] } },
{ "type": "Feature", "properties": { "cod_dsei": 17.0, "dsei": "MANAUS", "polo_base": "PONTA NATAL", "cod_polo": "1855", "nome_da_es": "PONTA NATAL", "uf_ibge": "AM", "cod_munici": 1302702.0, "municipio_": "MANICORÉ", "tipo_de_es": "POLO BASE" }, "geometry": { "type": "Point", "coordinates": [ -60.7853, -5.5506 ] } },
{ "type": "Feature", "properties": { "cod_dsei": 15.0, "dsei": "LESTE DE RORAIMA", "polo_base": "RAPOSA I", "cod_polo": "1660", "nome_da_es": "RAPOSA I", "uf_ibge": "RR", "cod_munici": 1400407.0, "municipio_": "NORMANDIA", "tipo_de_es": "POLO BASE" }, "geometry": { "type": "Point", "coordinates": [ -60.0863, 3.8068 ] } },
{ "type": "Feature", "properties": { "cod_dsei": 15.0, "dsei": "LESTE DE RORAIMA", "polo_base": "MILHO", "cod_polo": "1518", "nome_da_es": "MILHO", "uf_ibge": "RR", "cod_munici": 1400099.9999999998, "municipio_": "BOA VISTA", "tipo_de_es": "POLO BASE" }, "geometry": { "type": "Point", "coordinates": [ -60.4127, 3.3878 ] } },
{ "type": "Feature", "properties": { "cod_dsei": 15.0, "dsei": "LESTE DE RORAIMA", "polo_base": "MATURUCA", "cod_polo": "1632", "nome_da_es": "MATURUCA", "uf_ibge": "RR", "cod_munici": 1400704.0, "municipio_": "UIRAMUTÃ", "tipo_de_es": "POLO BASE" }, "geometry": { "type": "Point", "coordinates": [ -60.0992, 4.4675 ] } },
{ "type": "Feature", "properties": { "cod_dsei": 15.0, "dsei": "LESTE DE RORAIMA", "polo_base": "MORRO", "cod_polo": "1652", "nome_da_es": "MORRO", "uf_ibge": "RR", "cod_munici": 1400704.0, "municipio_": "UIRAMUTÃ", "tipo_de_es": "POLO BASE" }, "geometry": { "type": "Point", "coordinates": [ -59.9716, 4.3588 ] } },
{ "type": "Feature", "properties": { "cod_dsei": 15.0, "dsei": "LESTE DE RORAIMA", "polo_base": "WILIMON", "cod_polo": "1653", "nome_da_es": "MONTE MORIÁ I", "uf_ibge": "RR", "cod_munici": 1400704.0, "municipio_": "UIRAMUTÃ", "tipo_de_es": "POLO BASE" }, "geometry": { "type": "Point", "coordinates": [ -60.216, 4.6683 ] } },
{ "type": "Feature", "properties": { "cod_dsei": 15.0, "dsei": "LESTE DE RORAIMA", "polo_base": "CARAPARU I", "cod_polo": "1654", "nome_da_es": "ÁGUA FRIA", "uf_ibge": "RR", "cod_munici": 1400704.0, "municipio_": "UIRAMUTÃ", "tipo_de_es": "POLO BASE" }, "geometry": { "type": "Point", "coordinates": [ -60.4962, 4.6452 ] } },
{ "type": "Feature", "properties": { "cod_dsei": 15.0, "dsei": "LESTE DE RORAIMA", "polo_base": "CARAPARU I", "cod_polo": "1654", "nome_da_es": "CARAPARÚ I", "uf_ibge": "RR", "cod_munici": 1400704.0, "municipio_": "UIRAMUTÃ", "tipo_de_es": "POLO BASE" }, "geometry": { "type": "Point", "coordinates": [ -60.4628, 4.5499 ] } },
{ "type": "Feature", "properties": { "cod_dsei": 15.0, "dsei": "LESTE DE RORAIMA", "polo_base": "ARAÇÁ", "cod_polo": "1519", "nome_da_es": "ARAÇÁ", "uf_ibge": "RR", "cod_munici": 1400027.0, "municipio_": "AMAJARI", "tipo_de_es": "POLO BASE" }, "geometry": { "type": "Point", "coordinates": [ -61.1138, 3.5851 ] } },
{ "type": "Feature", "properties": { "cod_dsei": 15.0, "dsei": "LESTE DE RORAIMA", "polo_base": "ARAÇÁ", "cod_polo": "1519", "nome_da_es": "MANGUEIRA", "uf_ibge": "RR", "cod_munici": 1400027.0, "municipio_": "AMAJARI", "tipo_de_es": "POLO BASE" }, "geometry": { "type": "Point", "coordinates": [ -61.0845, 3.6528 ] } },
{ "type": "Feature", "properties": { "cod_dsei": 15.0, "dsei": "LESTE DE RORAIMA", "polo_base": "MANOA", "cod_polo": "1670", "nome_da_es": "PIUM DO MANOÁ", "uf_ibge": "RR", "cod_munici": 1400159.0, "municipio_": "BONFIM", "tipo_de_es": "POLO BASE" }, "geometry": { "type": "Point", "coordinates": [ -59.9747, 2.964 ] } },
{ "type": "Feature", "properties": { "cod_dsei": 15.0, "dsei": "LESTE DE RORAIMA", "polo_base": "MALACACHETA", "cod_polo": "1669", "nome_da_es": "MOSCOU", "uf_ibge": "RR", "cod_munici": 1400159.0, "municipio_": "BONFIM", "tipo_de_es": "POLO BASE" }, "geometry": { "type": "Point", "coordinates": [ -60.1877, 2.7541 ] } },
{ "type": "Feature", "properties": { "cod_dsei": 15.0, "dsei": "LESTE DE RORAIMA", "polo_base": "JACAMIM", "cod_polo": "1694", "nome_da_es": "JACAMIM", "uf_ibge": "RR", "cod_munici": 1400159.0, "municipio_": "BONFIM", "tipo_de_es": "POLO BASE" }, "geometry": { "type": "Point", "coordinates": [ -59.772, 2.1609 ] } },
{ "type": "Feature", "properties": { "cod_dsei": 29.0, "dsei": "TOCANTINS", "polo_base": "GOIATINS", "cod_polo": "1937", "nome_da_es": "GOIATINS", "uf_ibge": "TO", "cod_munici": 1709005.0, "municipio_": "GOIATINS", "tipo_de_es": "POLO BASE" }, "geometry": { "type": "Point", "coordinates": [ -47.3086, -7.7114 ] } },
{ "type": "Feature", "properties": { "cod_dsei": 29.0, "dsei": "TOCANTINS", "polo_base": "ITACAJÁ", "cod_polo": "1866", "nome_da_es": "ITACAJÁ", "uf_ibge": "TO", "cod_munici": 1710508.0000000002, "municipio_": "ITACAJÁ", "tipo_de_es": "POLO BASE" }, "geometry": { "type": "Point", "coordinates": [ -47.7708, -8.3917 ] } },
{ "type": "Feature", "properties": { "cod_dsei": 29.0, "dsei": "TOCANTINS", "polo_base": "FORMOSO DO ARAGUAIA", "cod_polo": "1864", "nome_da_es": "FORMOSO DO ARAGUAIA", "uf_ibge": "TO", "cod_munici": 1708205.0, "municipio_": "FORMOSO DO ARAGUAIA", "tipo_de_es": "POLO BASE" }, "geometry": { "type": "Point", "coordinates": [ -49.5308, -11.7969 ] } },
{ "type": "Feature", "properties": { "cod_dsei": 29.0, "dsei": "TOCANTINS", "polo_base": "TOCANTÍNIA", "cod_polo": "1862", "nome_da_es": "TOCANTÍNIA", "uf_ibge": "TO", "cod_munici": 1721109.0, "municipio_": "TOCANTÍNIA", "tipo_de_es": "POLO BASE" }, "geometry": { "type": "Point", "coordinates": [ -48.3775, -9.5653 ] } },
{ "type": "Feature", "properties": { "cod_dsei": 21.0, "dsei": "MÉDIO RIO PURUS", "polo_base": "JAPIIM", "cod_polo": "1700", "nome_da_es": "JAPIIM", "uf_ibge": "AM", "cod_munici": 1302405.0, "municipio_": "LÁBREA", "tipo_de_es": "POLO BASE" }, "geometry": { "type": "Point", "coordinates": [ -64.6572, -7.6913 ] } },
{ "type": "Feature", "properties": { "cod_dsei": 7.0, "dsei": "ALTO RIO SOLIMÕES", "polo_base": "NOVA ITÁLIA", "cod_polo": "1678", "nome_da_es": "SÃO FRANCISCO DO CANIMARI", "uf_ibge": "AM", "cod_munici": 1300060.0000000002, "municipio_": "AMATURÁ", "tipo_de_es": "POLO BASE" }, "geometry": { "type": "Point", "coordinates": [ -68.3524, -3.3853 ] } },
{ "type": "Feature", "properties": { "cod_dsei": 21.0, "dsei": "MÉDIO RIO PURUS", "polo_base": "MARRECÃO", "cod_polo": "1697", "nome_da_es": "MARRECÃO", "uf_ibge": "AM", "cod_munici": 1304104.0, "municipio_": "TAPAUÁ", "tipo_de_es": "POLO BASE" }, "geometry": { "type": "Point", "coordinates": [ -66.9331, -6.8107 ] } },
{ "type": "Feature", "properties": { "cod_dsei": 21.0, "dsei": "MÉDIO RIO PURUS", "polo_base": "CASA NOVA", "cod_polo": "1702", "nome_da_es": "CASA NOVA", "uf_ibge": "AM", "cod_munici": 1302405.0, "municipio_": "LÁBREA", "tipo_de_es": "POLO BASE" }, "geometry": { "type": "Point", "coordinates": [ -65.2605, -7.3055 ] } },
{ "type": "Feature", "properties": { "cod_dsei": 5.0, "dsei": "ALTO RIO PURUS", "polo_base": "SANTA ROSA", "cod_polo": "1687", "nome_da_es": "SANTA ROSA DO PURUS", "uf_ibge": "AC", "cod_munici": 1200435.0, "municipio_": "SANTA ROSA DO PURUS", "tipo_de_es": "POLO BASE" }, "geometry": { "type": "Point", "coordinates": [ -70.4854, -9.4435 ] } },
{ "type": "Feature", "properties": { "cod_dsei": 15.0, "dsei": "LESTE DE RORAIMA", "polo_base": "CAMARA", "cod_polo": "1649", "nome_da_es": "CAMARÁ", "uf_ibge": "RR", "cod_munici": 1400407.0, "municipio_": "NORMANDIA", "tipo_de_es": "POLO BASE" }, "geometry": { "type": "Point", "coordinates": [ -60.1741, 3.9956 ] } },
{ "type": "Feature", "properties": { "cod_dsei": 2.0, "dsei": "AMAPÁ E NORTE DO PARÁ", "polo_base": "KUMENÊ", "cod_polo": "1747", "nome_da_es": "KUMENÊ", "uf_ibge": "AP", "cod_munici": 1600501.0, "municipio_": "OIAPOQUE", "tipo_de_es": "POLO BASE" }, "geometry": { "type": "Point", "coordinates": [ -51.3756, -3.685 ] } },
{ "type": "Feature", "properties": { "cod_dsei": 2.0, "dsei": "AMAPÁ E NORTE DO PARÁ", "polo_base": "BONA", "cod_polo": "1717", "nome_da_es": "BONA", "uf_ibge": "PA", "cod_munici": 1500503.0, "municipio_": "ALMEIRIM", "tipo_de_es": "POLO BASE" }, "geometry": { "type": "Point", "coordinates": [ -54.6562, 1.2155 ] } },
{ "type": "Feature", "properties": { "cod_dsei": 2.0, "dsei": "AMAPÁ E NORTE DO PARÁ", "polo_base": "MISSÃO TIRIYÓ", "cod_polo": "1718", "nome_da_es": "MISSÃO TIRIYÓ", "uf_ibge": "PA", "cod_munici": 1505106.0, "municipio_": "ÓBIDOS", "tipo_de_es": "POLO BASE" }, "geometry": { "type": "Point", "coordinates": [ -55.9613, -2.2311 ] } },
{ "type": "Feature", "properties": { "cod_dsei": 17.0, "dsei": "MANAUS", "polo_base": "NOSSA SENHORA DA SAÚDE", "cod_polo": "1849", "nome_da_es": "TRÊS UNIDOS", "uf_ibge": "AM", "cod_munici": 1301852.0000000002, "municipio_": "IRANDUBA", "tipo_de_es": "POLO BASE" }, "geometry": { "type": "Point", "coordinates": [ -60.5017, -2.8192 ] } },
{ "type": "Feature", "properties": { "cod_dsei": 2.0, "dsei": "AMAPÁ E NORTE DO PARÁ", "polo_base": "ARAMIRÃ", "cod_polo": "1719", "nome_da_es": "ARAMIRÃ", "uf_ibge": "AP", "cod_munici": 1600154.0, "municipio_": "PEDRA BRANCA DO AMAPARI", "tipo_de_es": "POLO BASE" }, "geometry": { "type": "Point", "coordinates": [ -52.5774, 1.1091 ] } },
{ "type": "Feature", "properties": { "cod_dsei": 2.0, "dsei": "AMAPÁ E NORTE DO PARÁ", "polo_base": "MANGA", "cod_polo": "1748", "nome_da_es": "MANGA", "uf_ibge": "AP", "cod_munici": 1600501.0, "municipio_": "OIAPOQUE", "tipo_de_es": "POLO BASE" }, "geometry": { "type": "Point", "coordinates": [ -51.7189, -3.7248 ] } },
{ "type": "Feature", "properties": { "cod_dsei": 31.0, "dsei": "XAVANTE", "polo_base": "CAMPINÁPOLIS", "cod_polo": "1803", "nome_da_es": "CAMPINÁPOLIS", "uf_ibge": "MT", "cod_munici": 5102602.9999999991, "municipio_": "CAMPINÁPOLIS", "tipo_de_es": "POLO BASE" }, "geometry": { "type": "Point", "coordinates": [ -52.8033, -14.5438 ] } },
{ "type": "Feature", "properties": { "cod_dsei": 7.0, "dsei": "ALTO RIO SOLIMÕES", "polo_base": "VILA BITENCOURT", "cod_polo": "1876", "nome_da_es": "MAKU", "uf_ibge": "AM", "cod_munici": 1302108.0000000002, "municipio_": "JAPURÁ", "tipo_de_es": "POLO BASE" }, "geometry": { "type": "Point", "coordinates": [ -69.4081, -1.2746 ] } },
{ "type": "Feature", "properties": { "cod_dsei": 2.0, "dsei": "AMAPÁ E NORTE DO PARÁ", "polo_base": "KUMARUMÃ", "cod_polo": "1746", "nome_da_es": "KUMARUMÃ", "uf_ibge": "AP", "cod_munici": 1600501.0, "municipio_": "OIAPOQUE", "tipo_de_es": "POLO BASE" }, "geometry": { "type": "Point", "coordinates": [ -51.2972, 3.3786 ] } },
{ "type": "Feature", "properties": { "cod_dsei": 34.0, "dsei": "KAIAPÓ DO MATO GROSSO", "polo_base": "SEDE DO DSEI KAIAPÓ DO MT", "cod_polo": "1595", "nome_da_es": "KURURUZINHO", "uf_ibge": "PA", "cod_munici": 1503754.0, "municipio_": "JACAREACANGA (município do PA, e KMT tem uma parte no PA)", "tipo_de_es": "UAPI" }, "geometry": { "type": "Point", "coordinates": [ -57.3258, -8.8814 ] } },
{ "type": "Feature", "properties": { "cod_dsei": 34.0, "dsei": "KAIAPÓ DO MATO GROSSO", "polo_base": "SEDE DO DSEI KAIAPÓ DO MT", "cod_polo": "1595", "nome_da_es": "KAPOTO", "uf_ibge": "MT", "cod_munici": 5106422.0, "municipio_": "PEIXOTO DE AZEVEDO", "tipo_de_es": "UAPI" }, "geometry": { "type": "Point", "coordinates": [ -53.245, -9.7639 ] } },
{ "type": "Feature", "properties": { "cod_dsei": 15.0, "dsei": "LESTE DE RORAIMA", "polo_base": "TRÊS CORAÇÕES", "cod_polo": "1663", "nome_da_es": "TRÊS CORAÇÕES", "uf_ibge": "RR", "cod_munici": 1400027.0, "municipio_": "AMAJARI", "tipo_de_es": "POLO BASE" }, "geometry": { "type": "Point", "coordinates": [ -60.9773, 3.6458 ] } },
{ "type": "Feature", "properties": { "cod_dsei": 21.0, "dsei": "MÉDIO RIO PURUS", "polo_base": "CRISPIM", "cod_polo": "1701", "nome_da_es": "ALDEIA CRISPIM", "uf_ibge": "AM", "cod_munici": 1302405.0, "municipio_": "LÁBREA", "tipo_de_es": "POLO BASE" }, "geometry": { "type": "Point", "coordinates": [ -65.278, -7.5114 ] } },
{ "type": "Feature", "properties": { "cod_dsei": 21.0, "dsei": "MÉDIO RIO PURUS", "polo_base": "IMINAÃ", "cod_polo": "1705", "nome_da_es": "ILHA VERDE", "uf_ibge": "AM", "cod_munici": 1302405.0, "municipio_": "LÁBREA", "tipo_de_es": "POLO BASE" }, "geometry": { "type": "Point", "coordinates": [ -64.9312, -7.3266 ] } },
{ "type": "Feature", "properties": { "cod_dsei": 21.0, "dsei": "MÉDIO RIO PURUS", "polo_base": "TAWAMIRIM", "cod_polo": "1699", "nome_da_es": "SÃO LUCAS", "uf_ibge": "AM", "cod_munici": 1304104.0, "municipio_": "TAPAUÁ", "tipo_de_es": "POLO BASE" }, "geometry": { "type": "Point", "coordinates": [ -63.104, -5.5484 ] } },
{ "type": "Feature", "properties": { "cod_dsei": 20.0, "dsei": "MATO GROSSO DO SUL", "polo_base": "BRASILÂNDIA", "cod_polo": "1638", "nome_da_es": "OFAIÉ", "uf_ibge": "MS", "cod_munici": 5002308.0, "municipio_": "BRASILÂNDIA", "tipo_de_es": "POLO BASE" }, "geometry": { "type": "Point", "coordinates": [ -52.1336, -21.2485 ] } },
{ "type": "Feature", "properties": { "cod_dsei": 20.0, "dsei": "MATO GROSSO DO SUL", "polo_base": "JAPORÃ", "cod_polo": "1741", "nome_da_es": "JAPORÃ", "uf_ibge": "MS", "cod_munici": 5004809.0, "municipio_": "JAPORÃ", "tipo_de_es": "POLO BASE" }, "geometry": { "type": "Point", "coordinates": [ -54.5954, -23.7715 ] } },
{ "type": "Feature", "properties": { "cod_dsei": 34.0, "dsei": "KAIAPÓ DO MATO GROSSO", "polo_base": "PEIXOTO DE AZEVEDO", "cod_polo": "1574", "nome_da_es": "PIARAÇU", "uf_ibge": "MT", "cod_munici": 5107354.0, "municipio_": "SÃO JOSÉ DO XINGU", "tipo_de_es": "UAPI" }, "geometry": { "type": "Point", "coordinates": [ -53.075, -10.7794 ] } },
{ "type": "Feature", "properties": { "cod_dsei": 34.0, "dsei": "KAIAPÓ DO MATO GROSSO", "polo_base": "JUARA", "cod_polo": "1593", "nome_da_es": "TATUÍ", "uf_ibge": "MT", "cod_munici": 5105101.0, "municipio_": "JUARA", "tipo_de_es": "UAPI" }, "geometry": { "type": "Point", "coordinates": [ -57.5361, -10.9196 ] } },
{ "type": "Feature", "properties": { "cod_dsei": 36.0, "dsei": "INTERIOR SUL", "polo_base": "ARAQUARI", "cod_polo": "1693", "nome_da_es": "ARAQUARI", "uf_ibge": "SC", "cod_munici": 4201307.0, "municipio_": "Araquari", "tipo_de_es": "POLO BASE" }, "geometry": { "type": "Point", "coordinates": [ -48.7233, -26.3699 ] } },
{ "type": "Feature", "properties": { "cod_dsei": 36.0, "dsei": "INTERIOR SUL", "polo_base": "FLORIANÓPOLIS", "cod_polo": "1509", "nome_da_es": "FLORIANÓPOLIS", "uf_ibge": "SC", "cod_munici": 4202305.0, "municipio_": "BIGUAÇU", "tipo_de_es": "POLO BASE" }, "geometry": { "type": "Point", "coordinates": [ -48.6461, -27.5156 ] } },
{ "type": "Feature", "properties": { "cod_dsei": 36.0, "dsei": "INTERIOR SUL", "polo_base": "GUARITA", "cod_polo": "1997", "nome_da_es": "GUARITA", "uf_ibge": "RS", "cod_munici": 4321402.0, "municipio_": "TENENTE PORTELA (município fica no RS)", "tipo_de_es": "POLO BASE" }, "geometry": { "type": "Point", "coordinates": [ -53.7571, -27.3734 ] } },
{ "type": "Feature", "properties": { "cod_dsei": 36.0, "dsei": "INTERIOR SUL", "polo_base": "IPUAÇU", "cod_polo": "1998", "nome_da_es": "IPUAÇU", "uf_ibge": "SC", "cod_munici": 4207684.0, "municipio_": "IPUAÇU", "tipo_de_es": "POLO BASE" }, "geometry": { "type": "Point", "coordinates": [ -52.4526, -26.6363 ] } },
{ "type": "Feature", "properties": { "cod_dsei": 36.0, "dsei": "INTERIOR SUL", "polo_base": "JOSÉ BOITEUX", "cod_polo": "1511", "nome_da_es": "JOSÉ BOITEUX", "uf_ibge": "SC", "cod_munici": 4209151.0, "municipio_": "JOSÉ BOITEUX", "tipo_de_es": "POLO BASE" }, "geometry": { "type": "Point", "coordinates": [ -49.6277, -26.9585 ] } },
{ "type": "Feature", "properties": { "cod_dsei": 36.0, "dsei": "INTERIOR SUL", "polo_base": "NONOAI", "cod_polo": "1999", "nome_da_es": "NONOAI", "uf_ibge": "RS", "cod_munici": 4312708.0, "municipio_": "NONOAI", "tipo_de_es": "POLO BASE" }, "geometry": { "type": "Point", "coordinates": [ -52.7746, -27.3634 ] } },
{ "type": "Feature", "properties": { "cod_dsei": 36.0, "dsei": "INTERIOR SUL", "polo_base": "OSÓRIO", "cod_polo": "1603", "nome_da_es": "OSÓRIO", "uf_ibge": "RS", "cod_munici": 4313508.0, "municipio_": "OSÓRIO", "tipo_de_es": "POLO BASE" }, "geometry": { "type": "Point", "coordinates": [ -50.2737, -29.8923 ] } },
{ "type": "Feature", "properties": { "cod_dsei": 36.0, "dsei": "INTERIOR SUL", "polo_base": "PASSO FUNDO", "cod_polo": "1743", "nome_da_es": "PASSO FUNDO", "uf_ibge": "RS", "cod_munici": 4314100.0, "municipio_": "PASSO FUNDO", "tipo_de_es": "POLO BASE" }, "geometry": { "type": "Point", "coordinates": [ -52.3992, -28.255 ] } },
{ "type": "Feature", "properties": { "cod_dsei": 36.0, "dsei": "INTERIOR SUL", "polo_base": "PORTO ALEGRE", "cod_polo": "1512", "nome_da_es": "PORTO ALEGRE", "uf_ibge": "RS", "cod_munici": 4314902.0, "municipio_": "PORTO ALEGRE", "tipo_de_es": "POLO BASE" }, "geometry": { "type": "Point", "coordinates": [ -51.2066, -30.0199 ] } },
{ "type": "Feature", "properties": { "cod_dsei": 36.0, "dsei": "INTERIOR SUL", "polo_base": "VIAMÃO", "cod_polo": "1690", "nome_da_es": "VIAMÃO", "uf_ibge": "RS", "cod_munici": 4323002.0, "municipio_": "VIAMÃO", "tipo_de_es": "POLO BASE" }, "geometry": { "type": "Point", "coordinates": [ -51.0705, -30.0924 ] } },
{ "type": "Feature", "properties": { "cod_dsei": 36.0, "dsei": "INTERIOR SUL", "polo_base": "CHAPECÓ", "cod_polo": "1510", "nome_da_es": "CHAPECÓ", "uf_ibge": "SC", "cod_munici": 4204202.0, "municipio_": "CHAPECÓ", "tipo_de_es": "POLO BASE" }, "geometry": { "type": "Point", "coordinates": [ -52.6083, -27.1077 ] } },
{ "type": "Feature", "properties": { "cod_dsei": 36.0, "dsei": "INTERIOR SUL", "polo_base": "BARRA DO RIBEIRO", "cod_polo": "1863", "nome_da_es": "BARRA DO RIBEIRO", "uf_ibge": "RS", "cod_munici": 4301909.0, "municipio_": "BARRA DO RIBEIRO", "tipo_de_es": "POLO BASE" }, "geometry": { "type": "Point", "coordinates": [ -51.4547, -30.4207 ] } },
{ "type": "Feature", "properties": { "cod_dsei": 10.0, "dsei": "CEARÁ", "polo_base": "AQUIRAZ", "cod_polo": "1594", "nome_da_es": "MARIA DO CARMO PEREIRA", "uf_ibge": "CE", "cod_munici": 2301000.0, "municipio_": "AQUIRAZ", "tipo_de_es": "POLO BASE" }, "geometry": { "type": "Point", "coordinates": [ -38.283123, -3.968757 ] } },
{ "type": "Feature", "properties": { "cod_dsei": 10.0, "dsei": "CEARÁ", "polo_base": "ARATUBA", "cod_polo": "1614", "nome_da_es": "FRANCISCA DOS SANTOS SILVA", "uf_ibge": "CE", "cod_munici": 2301406.0, "municipio_": "ARATUBA", "tipo_de_es": "POLO BASE" }, "geometry": { "type": "Point", "coordinates": [ -39.072245, -4.405639 ] } },
{ "type": "Feature", "properties": { "cod_dsei": 10.0, "dsei": "CEARÁ", "polo_base": "ITAREMA", "cod_polo": "1797", "nome_da_es": "VARJOTA", "uf_ibge": "CE", "cod_munici": 2306553.0, "municipio_": "ITAREMA", "tipo_de_es": "POLO BASE" }, "geometry": { "type": "Point", "coordinates": [ -39.81375, -2.981842 ] } },
{ "type": "Feature", "properties": { "cod_dsei": 10.0, "dsei": "CEARÁ", "polo_base": "MARACANAÚ", "cod_polo": "1726", "nome_da_es": "FRANCISCO DOS SANTOS SILVA - CACIQUE DANIEL", "uf_ibge": "CE", "cod_munici": 2307650.0, "municipio_": "MARACANAÚ", "tipo_de_es": "POLO BASE" }, "geometry": { "type": "Point", "coordinates": [ -38.63275273, -3.934197799 ] } },
{ "type": "Feature", "properties": { "cod_dsei": 10.0, "dsei": "CEARÁ", "polo_base": "MONSENHOR TABOSA", "cod_polo": "1608", "nome_da_es": "ABÁ NHEEGATU DA SERRA DAS MATAS NASCENTE DO RIO ACARAÚ - MARIA FELIZ DE SOUSA", "uf_ibge": "CE", "cod_munici": 2308609.0, "municipio_": "MONSENHOR TABOSA", "tipo_de_es": "POLO BASE" }, "geometry": { "type": "Point", "coordinates": [ -40.07281, -4.82987 ] } },
{ "type": "Feature", "properties": { "cod_dsei": 10.0, "dsei": "CEARÁ", "polo_base": "PORANGA", "cod_polo": "1610", "nome_da_es": "ALDEIA UMBURANA - EM CONSTRUÇÃO", "uf_ibge": "CE", "cod_munici": 2311009.0, "municipio_": "PORANGA", "tipo_de_es": "POLO BASE" }, "geometry": { "type": "Point", "coordinates": [ -40.93684, -4.747427 ] } },
{ "type": "Feature", "properties": { "cod_dsei": 10.0, "dsei": "CEARÁ", "polo_base": "POTYRÕ TAPEBA", "cod_polo": "1725", "nome_da_es": "POLO DO TRILHO", "uf_ibge": "CE", "cod_munici": 2303709.0, "municipio_": "CAUCAIA", "tipo_de_es": "POLO BASE" }, "geometry": { "type": "Point", "coordinates": [ -38.683431, -3.729531 ] } },